,Longitude,Latitude,street,LSOA name
0,-1.8500560000000001,52.591108, walsall road,Birmingham 
1,-1.850772,52.588691000000004, seymour gardens,Birmingham 
2,-1.840641,52.59826999999999, badgers bank road,Birmingham 
3,-1.840641,52.59826999999999, badgers bank road,Birmingham 
4,-1.8390630000000001,52.597809, byron court,Birmingham 
5,-1.8419439999999998,52.597265, chelsea drive,Birmingham 
6,-1.849895,52.599171999999996, kesterton road,Birmingham 
7,-1.8494689999999998,52.598668, harrison road,Birmingham 
8,-1.847522,52.598126, ensford close,Birmingham 
9,-1.848136,52.599934, st georges court,Birmingham 
10,-1.8418439999999998,52.600474, kestrel drive,Birmingham 
11,-1.8418439999999998,52.600474, kestrel drive,Birmingham 
12,-1.840972,52.60077, petershouse drive,Birmingham 
13,-1.8430919999999997,52.602470999999994, moore close,Birmingham 
14,-1.8418439999999998,52.600474, kestrel drive,Birmingham 
15,-1.8418439999999998,52.600474, kestrel drive,Birmingham 
16,-1.845631,52.602637, station approach,Birmingham 
17,-1.845631,52.602637, station approach,Birmingham 
18,-1.845631,52.602637, station approach,Birmingham 
19,-1.8448189999999998,52.602564, cleeve drive,Birmingham 
20,-1.845631,52.602637, station approach,Birmingham 
21,-1.8418439999999998,52.600474, kestrel drive,Birmingham 
22,-1.845631,52.602637, station approach,Birmingham 
23,-1.8386939999999998,52.60604300000001, wyndley close,Birmingham 
24,-1.8418439999999998,52.600474, kestrel drive,Birmingham 
25,-1.845631,52.602637, station approach,Birmingham 
26,-1.838265,52.594184999999996, hillside road,Birmingham 
27,-1.837164,52.592476, butlers lane,Birmingham 
28,-1.8340889999999999,52.593658, gresley close,Birmingham 
29,-1.8340889999999999,52.593658, gresley close,Birmingham 
30,-1.838225,52.597044, haycroft drive,Birmingham 
31,-1.845264,52.589493000000004, farncote drive,Birmingham 
32,-1.845376,52.591201, four oaks common road,Birmingham 
33,-1.838282,52.585564, nursery lane,Birmingham 
34,-1.839117,52.587309, all saints drive,Birmingham 
35,-1.822993,52.588752, wheatley close,Birmingham 
36,-1.822993,52.588752, wheatley close,Birmingham 
37,-1.822993,52.588752, wheatley close,Birmingham 
38,-1.8250490000000001,52.58769399999999, mere green road,Birmingham 
39,-1.827996,52.58521700000001, mere drive,Birmingham 
40,-1.820268,52.590824, grange lane,Birmingham 
41,-1.8243200000000002,52.588995999999995, wilmcote drive,Birmingham 
42,-1.820268,52.590824, grange lane,Birmingham 
43,-1.825074,52.592431999999995, duncalfe drive,Birmingham 
44,-1.8313959999999998,52.58764, supermarket,Birmingham 
45,-1.8326900000000002,52.588955000000006, ethelred close,Birmingham 
46,-1.833188,52.589926, harland road,Birmingham 
47,-1.8326900000000002,52.588955000000006, ethelred close,Birmingham 
48,-1.8279,52.590755, walcot close,Birmingham 
49,-1.832573,52.59237099999999, henley drive,Birmingham 
50,-1.8290099999999998,52.59014499999999, brentnall drive,Birmingham 
51,-1.832573,52.59237099999999, henley drive,Birmingham 
52,-1.831622,52.590176, holly lane,Birmingham 
53,-1.8253650000000001,52.589951, tower road,Birmingham 
54,-1.829952,52.586973, lichfield road,Birmingham 
55,-1.829952,52.586973, lichfield road,Birmingham 
56,-1.829952,52.586973, lichfield road,Birmingham 
57,-1.829952,52.586973, lichfield road,Birmingham 
58,-1.829952,52.586973, lichfield road,Birmingham 
59,-1.829377,52.586738000000004, supermarket,Birmingham 
60,-1.8279,52.590755, walcot close,Birmingham 
61,-1.829377,52.586738000000004, supermarket,Birmingham 
62,-1.831622,52.590176, holly lane,Birmingham 
63,-1.8326900000000002,52.588955000000006, ethelred close,Birmingham 
64,-1.8279,52.590755, walcot close,Birmingham 
65,-1.832573,52.59237099999999, henley drive,Birmingham 
66,-1.832573,52.59237099999999, henley drive,Birmingham 
67,-1.8279,52.590755, walcot close,Birmingham 
68,-1.8279,52.590755, walcot close,Birmingham 
69,-1.809353,52.589027, slade road,Birmingham 
70,-1.809353,52.589027, slade road,Birmingham 
71,-1.8027939999999998,52.593546999999994, canwell gate,Birmingham 
72,-1.8027939999999998,52.593546999999994, canwell gate,Birmingham 
73,-1.8166919999999998,52.591916000000005, darnel hurst road,Birmingham 
74,-1.819,52.590526000000004, rednall drive,Birmingham 
75,-1.819,52.590526000000004, rednall drive,Birmingham 
76,-1.8103599999999997,52.58470500000001, ferrers close,Birmingham 
77,-1.81655,52.586899, little sutton road,Birmingham 
78,-1.8147900000000001,52.584171999999995, essex road,Birmingham 
79,-1.8114709999999998,52.583817, wyrley road,Birmingham 
80,-1.8114709999999998,52.583817, wyrley road,Birmingham 
81,-1.822052,52.587743, mere green close,Birmingham 
82,-1.821853,52.586026000000004, arlescote close,Birmingham 
83,-1.827173,52.580442000000005, ridgewood drive,Birmingham 
84,-1.822441,52.579294, ley hill road,Birmingham 
85,-1.826452,52.579848, dower road,Birmingham 
86,-1.827018,52.582482999999996, jordan close,Birmingham 
87,-1.827173,52.580442000000005, ridgewood drive,Birmingham 
88,-1.855041,52.592418, streetly drive,Birmingham 
89,-1.8561,52.59334499999999, rounton close,Birmingham 
90,-1.820734,52.563424, coleshill street,Birmingham 
91,-1.8242909999999999,52.566854000000006, parking area,Birmingham 
92,-1.821706,52.567579, further/higher educational building,Birmingham 
93,-1.8162189999999998,52.563642, riland road,Birmingham 
94,-1.8175830000000002,52.565649, broome gardens,Birmingham 
95,-1.820734,52.563424, coleshill street,Birmingham 
96,-1.868772,52.556717000000006, monmouth drive,Birmingham 
97,-1.820734,52.563424, coleshill street,Birmingham 
98,-1.8309090000000001,52.568248, morningside,Birmingham 
99,-1.843755,52.557047, sports/recreation area,Birmingham 
100,-1.843755,52.557047, sports/recreation area,Birmingham 
101,-1.8162189999999998,52.563642, riland road,Birmingham 
102,-1.8175830000000002,52.565649, broome gardens,Birmingham 
103,-1.843755,52.557047, sports/recreation area,Birmingham 
104,-1.8242909999999999,52.566854000000006, parking area,Birmingham 
105,-1.8175830000000002,52.565649, broome gardens,Birmingham 
106,-1.823352,52.565541, railway road,Birmingham 
107,-1.8175830000000002,52.565649, broome gardens,Birmingham 
108,-1.82477,52.568617, anchorage road,Birmingham 
109,-1.823352,52.565541, railway road,Birmingham 
110,-1.843755,52.557047, sports/recreation area,Birmingham 
111,-1.843755,52.557047, sports/recreation area,Birmingham 
112,-1.823352,52.565541, railway road,Birmingham 
113,-1.8242909999999999,52.566854000000006, parking area,Birmingham 
114,-1.8162189999999998,52.563642, riland road,Birmingham 
115,-1.821706,52.567579, further/higher educational building,Birmingham 
116,-1.823352,52.565541, railway road,Birmingham 
117,-1.820734,52.563424, coleshill street,Birmingham 
118,-1.820734,52.563424, coleshill street,Birmingham 
119,-1.820734,52.563424, coleshill street,Birmingham 
120,-1.823352,52.565541, railway road,Birmingham 
121,-1.8188229999999999,52.565516, pages close,Birmingham 
122,-1.841236,52.58075899999999, cliveden coppice,Birmingham 
123,-1.8301619999999998,52.57836999999999, hampton drive,Birmingham 
124,-1.8269490000000002,52.577358, bowlas avenue,Birmingham 
125,-1.8269490000000002,52.577358, bowlas avenue,Birmingham 
126,-1.8301619999999998,52.57836999999999, hampton drive,Birmingham 
127,-1.82212,52.574672, thorpe close,Birmingham 
128,-1.8181990000000001,52.57357, sports/recreation area,Birmingham 
129,-1.8103740000000001,52.574672, carlton close,Birmingham 
130,-1.843121,52.577866, clarry drive,Birmingham 
131,-1.8221779999999999,52.571175, bramcote rise,Birmingham 
132,-1.8221779999999999,52.571175, bramcote rise,Birmingham 
133,-1.841905,52.575456, stoneleigh close,Birmingham 
134,-1.843121,52.577866, clarry drive,Birmingham 
135,-1.834229,52.556512, murray court,Birmingham 
136,-1.834229,52.556512, murray court,Birmingham 
137,-1.786992,52.56423100000001, woodington road,Birmingham 
138,-1.791594,52.56451800000001, bracken drive,Birmingham 
139,-1.786992,52.56423100000001, woodington road,Birmingham 
140,-1.791594,52.56451800000001, bracken drive,Birmingham 
141,-1.786992,52.56423100000001, woodington road,Birmingham 
142,-1.7911169999999998,52.565433999999996, carhampton road,Birmingham 
143,-1.786945,52.567953, lindridge road,Birmingham 
144,-1.7911169999999998,52.565433999999996, carhampton road,Birmingham 
145,-1.7842689999999999,52.566042, repington way,Birmingham 
146,-1.786992,52.56423100000001, woodington road,Birmingham 
147,-1.7911169999999998,52.565433999999996, carhampton road,Birmingham 
148,-1.786992,52.56423100000001, woodington road,Birmingham 
149,-1.7900919999999998,52.566916000000006, falcon lodge crescent,Birmingham 
150,-1.7911169999999998,52.565433999999996, carhampton road,Birmingham 
151,-1.786992,52.56423100000001, woodington road,Birmingham 
152,-1.786992,52.56423100000001, woodington road,Birmingham 
153,-1.786992,52.56423100000001, woodington road,Birmingham 
154,-1.7942330000000002,52.568029, gunner grove,Birmingham 
155,-1.786945,52.567953, lindridge road,Birmingham 
156,-1.786992,52.56423100000001, woodington road,Birmingham 
157,-1.786992,52.56423100000001, woodington road,Birmingham 
158,-1.791594,52.56451800000001, bracken drive,Birmingham 
159,-1.786992,52.56423100000001, woodington road,Birmingham 
160,-1.786992,52.56423100000001, woodington road,Birmingham 
161,-1.788786,52.565574, duncumb road,Birmingham 
162,-1.7911169999999998,52.565433999999996, carhampton road,Birmingham 
163,-1.791594,52.56451800000001, bracken drive,Birmingham 
164,-1.8013599999999999,52.574388, sadler road,Birmingham 
165,-1.7969080000000002,52.567035, st george's close,Birmingham 
166,-1.798245,52.571433999999996, fox close,Birmingham 
167,-1.7969080000000002,52.567035, st george's close,Birmingham 
168,-1.797205,52.56973299999999, trickley drive,Birmingham 
169,-1.798976,52.566527, rectory road,Birmingham 
170,-1.798976,52.566527, rectory road,Birmingham 
171,-1.803394,52.574886, whitehouse common road,Birmingham 
172,-1.7969080000000002,52.567035, st george's close,Birmingham 
173,-1.80276,52.574615, ludford close,Birmingham 
174,-1.7969080000000002,52.567035, st george's close,Birmingham 
175,-1.8008680000000001,52.572256, arthur gunby close,Birmingham 
176,-1.794846,52.563202000000004, ogley drive,Birmingham 
177,-1.7931240000000002,52.565447, colmore drive,Birmingham 
178,-1.7931240000000002,52.565447, colmore drive,Birmingham 
179,-1.7998740000000002,52.56360600000001, st chad's road,Birmingham 
180,-1.796295,52.562296999999994, fairfax road,Birmingham 
181,-1.796295,52.562296999999994, fairfax road,Birmingham 
182,-1.794846,52.563202000000004, ogley drive,Birmingham 
183,-1.7931240000000002,52.565447, colmore drive,Birmingham 
184,-1.7931240000000002,52.565447, colmore drive,Birmingham 
185,-1.7931240000000002,52.565447, colmore drive,Birmingham 
186,-1.796295,52.562296999999994, fairfax road,Birmingham 
187,-1.796295,52.562296999999994, fairfax road,Birmingham 
188,-1.79857,52.564899, grove farm drive,Birmingham 
189,-1.782707,52.565706999999996, wyatt road,Birmingham 
190,-1.7811740000000003,52.565515000000005, langley hall drive,Birmingham 
191,-1.784428,52.56383100000001, arden drive,Birmingham 
192,-1.784428,52.56383100000001, arden drive,Birmingham 
193,-1.784428,52.56383100000001, arden drive,Birmingham 
194,-1.7871860000000002,52.560788, nuthurst,Birmingham 
195,-1.7871860000000002,52.560788, nuthurst,Birmingham 
196,-1.7886090000000001,52.562562, stone avenue,Birmingham 
197,-1.782707,52.565706999999996, wyatt road,Birmingham 
198,-1.782707,52.565706999999996, wyatt road,Birmingham 
199,-1.786932,52.561533999999995, fowler road,Birmingham 
200,-1.782707,52.565706999999996, wyatt road,Birmingham 
201,-1.782707,52.565706999999996, wyatt road,Birmingham 
202,-1.782707,52.565706999999996, wyatt road,Birmingham 
203,-1.7886090000000001,52.562562, stone avenue,Birmingham 
204,-1.782707,52.565706999999996, wyatt road,Birmingham 
205,-1.7811740000000003,52.565515000000005, langley hall drive,Birmingham 
206,-1.783875,52.565143000000006, goodeve walk,Birmingham 
207,-1.794545,52.561197, reddicap heath road,Birmingham 
208,-1.794545,52.561197, reddicap heath road,Birmingham 
209,-1.7892540000000001,52.563327, churchill road,Birmingham 
210,-1.7892540000000001,52.563327, churchill road,Birmingham 
211,-1.7892540000000001,52.563327, churchill road,Birmingham 
212,-1.7909700000000002,52.56226899999999, newdigate road,Birmingham 
213,-1.794261,52.561969999999995, lingard road,Birmingham 
214,-1.7909700000000002,52.56226899999999, newdigate road,Birmingham 
215,-1.794261,52.561969999999995, lingard road,Birmingham 
216,-1.798444,52.560106999999995, freeman drive,Birmingham 
217,-1.7909700000000002,52.56226899999999, newdigate road,Birmingham 
218,-1.796372,52.555339000000004, berryfields road,Birmingham 
219,-1.795481,52.556677, yew tree rise,Birmingham 
220,-1.796372,52.555339000000004, berryfields road,Birmingham 
221,-1.795481,52.556677, yew tree rise,Birmingham 
222,-1.797209,52.556203000000004, wiggins croft,Birmingham 
223,-1.795481,52.556677, yew tree rise,Birmingham 
224,-1.796372,52.555339000000004, berryfields road,Birmingham 
225,-1.799448,52.556746, monks kirby road,Birmingham 
226,-1.795481,52.556677, yew tree rise,Birmingham 
227,-1.796372,52.555339000000004, berryfields road,Birmingham 
228,-1.797209,52.556203000000004, wiggins croft,Birmingham 
229,-1.797209,52.556203000000004, wiggins croft,Birmingham 
230,-1.7972419999999998,52.55856800000001, dovebridge close,Birmingham 
231,-1.795481,52.556677, yew tree rise,Birmingham 
232,-1.797209,52.556203000000004, wiggins croft,Birmingham 
233,-1.7972419999999998,52.55856800000001, dovebridge close,Birmingham 
234,-1.796372,52.555339000000004, berryfields road,Birmingham 
235,-1.804988,52.56134, rectory park avenue,Birmingham 
236,-1.8120580000000002,52.567366, hospital,Birmingham 
237,-1.8093259999999998,52.564629000000004, parking area,Birmingham 
238,-1.804988,52.56134, rectory park avenue,Birmingham 
239,-1.8123340000000001,52.56156800000001, broomie close,Birmingham 
240,-1.817639,52.566359, jerrard drive,Birmingham 
241,-1.805641,52.560514000000005, mount view,Birmingham 
242,-1.8120580000000002,52.567366, hospital,Birmingham 
243,-1.8120580000000002,52.567366, hospital,Birmingham 
244,-1.8120580000000002,52.567366, hospital,Birmingham 
245,-1.8120580000000002,52.567366, hospital,Birmingham 
246,-1.8120580000000002,52.567366, hospital,Birmingham 
247,-1.804457,52.564684, hollyfield drive,Birmingham 
248,-1.8120580000000002,52.567366, hospital,Birmingham 
249,-1.815666,52.561951, coleshill road,Birmingham 
250,-1.8086080000000002,52.560142000000006, reddicap hill,Birmingham 
251,-1.8120580000000002,52.567366, hospital,Birmingham 
252,-1.8120580000000002,52.567366, hospital,Birmingham 
253,-1.8120580000000002,52.567366, hospital,Birmingham 
254,-1.8120580000000002,52.567366, hospital,Birmingham 
255,-1.805641,52.560514000000005, mount view,Birmingham 
256,-1.804457,52.564684, hollyfield drive,Birmingham 
257,-1.813021,52.566334, rectory road,Birmingham 
258,-1.815176,52.562597, norris way,Birmingham 
259,-1.804988,52.56134, rectory park avenue,Birmingham 
260,-1.8120580000000002,52.567366, hospital,Birmingham 
261,-1.8120580000000002,52.567366, hospital,Birmingham 
262,-1.8120580000000002,52.567366, hospital,Birmingham 
263,-1.815176,52.562597, norris way,Birmingham 
264,-1.8120580000000002,52.567366, hospital,Birmingham 
265,-1.8120580000000002,52.567366, hospital,Birmingham 
266,-1.815666,52.561951, coleshill road,Birmingham 
267,-1.7977330000000002,52.551097999999996, walmley road,Birmingham 
268,-1.8069970000000002,52.557379000000005, roundhill close,Birmingham 
269,-1.800977,52.55455500000001, hollingberry lane,Birmingham 
270,-1.7984830000000003,52.554947, argus close,Birmingham 
271,-1.8067090000000001,52.559177000000005, peveril grove,Birmingham 
272,-1.800977,52.55455500000001, hollingberry lane,Birmingham 
273,-1.7974240000000001,52.547762, thimble drive,Birmingham 
274,-1.815352,52.552285999999995, corncrake close,Birmingham 
275,-1.8009959999999998,52.54053100000001, crawford road,Birmingham 
276,-1.800756,52.544738, millstone close,Birmingham 
277,-1.815953,52.549779, maney hill road,Birmingham 
278,-1.8006849999999999,52.547498, water mill crescent,Birmingham 
279,-1.7974240000000001,52.547762, thimble drive,Birmingham 
280,-1.8006849999999999,52.547498, water mill crescent,Birmingham 
281,-1.80223,52.544929, new shipton close,Birmingham 
282,-1.8009959999999998,52.54053100000001, crawford road,Birmingham 
283,-1.8005849999999999,52.540144, walmley close,Birmingham 
284,-1.804987,52.578393999999996, tamworth road,Birmingham 
285,-1.804987,52.578393999999996, tamworth road,Birmingham 
286,-1.807953,52.571557999999996, bedford road,Birmingham 
287,-1.807536,52.569193000000006, bedford drive,Birmingham 
288,-1.8079990000000001,52.571107999999995, bedford road,Birmingham 
289,-1.806758,52.574999, ashfurlong crescent,Birmingham 
290,-1.8045080000000002,52.559991000000004, walmley road,Birmingham 
291,-1.8107659999999999,52.555721999999996, firbarn close,Birmingham 
292,-1.810389,52.557475, fledburgh drive,Birmingham 
293,-1.8085630000000001,52.556815, homewood close,Birmingham 
294,-1.8026630000000001,52.56010500000001, supermarket,Birmingham 
295,-1.8026630000000001,52.56010500000001, supermarket,Birmingham 
296,-1.8026630000000001,52.56010500000001, supermarket,Birmingham 
297,-1.8072990000000002,52.55925, betteridge drive,Birmingham 
298,-1.8105490000000002,52.558113, eastbrook close,Birmingham 
299,-1.8026630000000001,52.56010500000001, supermarket,Birmingham 
300,-1.8105490000000002,52.558113, eastbrook close,Birmingham 
301,-1.88598,52.552806999999994, parking area,Birmingham 
302,-1.885304,52.55206, motorway service area,Birmingham 
303,-1.8844869999999998,52.554235, police station,Birmingham 
304,-1.8811900000000001,52.557216000000004, beacon road,Birmingham 
305,-1.885304,52.55206, motorway service area,Birmingham 
306,-1.8844869999999998,52.554235, police station,Birmingham 
307,-1.8857549999999998,52.554488, kettlehouse road,Birmingham 
308,-1.8815220000000001,52.554591, milburn road,Birmingham 
309,-1.885304,52.55206, motorway service area,Birmingham 
310,-1.885304,52.55206, motorway service area,Birmingham 
311,-1.88598,52.552806999999994, parking area,Birmingham 
312,-1.885304,52.55206, motorway service area,Birmingham 
313,-1.885304,52.55206, motorway service area,Birmingham 
314,-1.88598,52.552806999999994, parking area,Birmingham 
315,-1.885304,52.55206, motorway service area,Birmingham 
316,-1.885202,52.551511, kingstanding road,Birmingham 
317,-1.8857549999999998,52.554488, kettlehouse road,Birmingham 
318,-1.8857549999999998,52.554488, kettlehouse road,Birmingham 
319,-1.885304,52.55206, motorway service area,Birmingham 
320,-1.885304,52.55206, motorway service area,Birmingham 
321,-1.885202,52.551511, kingstanding road,Birmingham 
322,-1.8856680000000001,52.55389399999999, parking area,Birmingham 
323,-1.885304,52.55206, motorway service area,Birmingham 
324,-1.8844869999999998,52.554235, police station,Birmingham 
325,-1.885304,52.55206, motorway service area,Birmingham 
326,-1.8844869999999998,52.554235, police station,Birmingham 
327,-1.88598,52.552806999999994, parking area,Birmingham 
328,-1.8844869999999998,52.554235, police station,Birmingham 
329,-1.8844869999999998,52.554235, police station,Birmingham 
330,-1.881432,52.565829, elmwood road,Birmingham 
331,-1.887636,52.563030000000005, rowton drive,Birmingham 
332,-1.8772630000000001,52.563720999999994, chester road north,Birmingham 
333,-1.888507,52.562796999999996, lindens drive,Birmingham 
334,-1.8856970000000002,52.5655, queslett road east,Birmingham 
335,-1.8803919999999998,52.563373, sutton oak road,Birmingham 
336,-1.8804189999999998,52.56434399999999, sutton oak road,Birmingham 
337,-1.8803919999999998,52.563373, sutton oak road,Birmingham 
338,-1.8789639999999999,52.562311, longmore close,Birmingham 
339,-1.875709,52.555080000000004, rough road,Birmingham 
340,-1.881892,52.559374, kingstanding road,Birmingham 
341,-1.875709,52.555080000000004, rough road,Birmingham 
342,-1.875709,52.555080000000004, rough road,Birmingham 
343,-1.881892,52.559374, kingstanding road,Birmingham 
344,-1.875709,52.555080000000004, rough road,Birmingham 
345,-1.881892,52.559374, kingstanding road,Birmingham 
346,-1.866193,52.55615699999999, dunchurch crescent,Birmingham 
347,-1.874127,52.556588, longmoor road,Birmingham 
348,-1.8679130000000002,52.552896, welshmans hill,Birmingham 
349,-1.8679130000000002,52.552896, welshmans hill,Birmingham 
350,-1.866193,52.55615699999999, dunchurch crescent,Birmingham 
351,-1.874127,52.556588, longmoor road,Birmingham 
352,-1.866193,52.55615699999999, dunchurch crescent,Birmingham 
353,-1.874127,52.556588, longmoor road,Birmingham 
354,-1.8679130000000002,52.552896, welshmans hill,Birmingham 
355,-1.8679130000000002,52.552896, welshmans hill,Birmingham 
356,-1.866193,52.55615699999999, dunchurch crescent,Birmingham 
357,-1.867837,52.55366899999999, greenway drive,Birmingham 
358,-1.866193,52.55615699999999, dunchurch crescent,Birmingham 
359,-1.874127,52.556588, longmoor road,Birmingham 
360,-1.866193,52.55615699999999, dunchurch crescent,Birmingham 
361,-1.866193,52.55615699999999, dunchurch crescent,Birmingham 
362,-1.866193,52.55615699999999, dunchurch crescent,Birmingham 
363,-1.89773,52.55483100000001, netherhouse close,Birmingham 
364,-1.8941970000000001,52.558361, brompton road,Birmingham 
365,-1.8986150000000002,52.555147, cotleigh grove,Birmingham 
366,-1.8986150000000002,52.555147, cotleigh grove,Birmingham 
367,-1.89773,52.55483100000001, netherhouse close,Birmingham 
368,-1.8941970000000001,52.558361, brompton road,Birmingham 
369,-1.8941970000000001,52.558361, brompton road,Birmingham 
370,-1.894609,52.558676, sheen road,Birmingham 
371,-1.8953060000000002,52.556924, lambeth road,Birmingham 
372,-1.889012,52.555354, dollis grove,Birmingham 
373,-1.8862349999999999,52.556978, fernhill grove,Birmingham 
374,-1.8917669999999998,52.556732, orpington road,Birmingham 
375,-1.891566,52.554538, king's road,Birmingham 
376,-1.8917669999999998,52.556732, orpington road,Birmingham 
377,-1.8862349999999999,52.556978, fernhill grove,Birmingham 
378,-1.893775,52.555744999999995, copthorne road,Birmingham 
379,-1.893775,52.555744999999995, copthorne road,Birmingham 
380,-1.88798,52.555172999999996, stanway grove,Birmingham 
381,-1.8946669999999999,52.553138, farrow road,Birmingham 
382,-1.8964619999999999,52.554677000000005, privet close,Birmingham 
383,-1.8946669999999999,52.553138, farrow road,Birmingham 
384,-1.8946669999999999,52.553138, farrow road,Birmingham 
385,-1.891566,52.554538, king's road,Birmingham 
386,-1.8852209999999998,52.555547999999995, kilburn grove,Birmingham 
387,-1.88798,52.555172999999996, stanway grove,Birmingham 
388,-1.8907779999999998,52.55701800000001, wandsworth road,Birmingham 
389,-1.890177,52.555642000000006, dormington road,Birmingham 
390,-1.8862349999999999,52.556978, fernhill grove,Birmingham 
391,-1.891566,52.554538, king's road,Birmingham 
392,-1.8852209999999998,52.555547999999995, kilburn grove,Birmingham 
393,-1.884882,52.555485, kilburn road,Birmingham 
394,-1.8898529999999998,52.555147999999996, blythe grove,Birmingham 
395,-1.890177,52.555642000000006, dormington road,Birmingham 
396,-1.8917669999999998,52.556732, orpington road,Birmingham 
397,-1.893775,52.555744999999995, copthorne road,Birmingham 
398,-1.890177,52.555642000000006, dormington road,Birmingham 
399,-1.8907779999999998,52.55701800000001, wandsworth road,Birmingham 
400,-1.890177,52.555642000000006, dormington road,Birmingham 
401,-1.891529,52.551751, weybourne road,Birmingham 
402,-1.893159,52.548534, sports/recreation area,Birmingham 
403,-1.893159,52.548534, sports/recreation area,Birmingham 
404,-1.8925990000000001,52.554134, gailey croft,Birmingham 
405,-1.887752,52.552035, rockmead avenue,Birmingham 
406,-1.893846,52.550791000000004, thorncliffe road,Birmingham 
407,-1.893846,52.550791000000004, thorncliffe road,Birmingham 
408,-1.887882,52.558921999999995, cooksey lane,Birmingham 
409,-1.889356,52.559318999999995, lisson grove,Birmingham 
410,-1.8927490000000002,52.559501000000004, brockwell road,Birmingham 
411,-1.889356,52.559318999999995, lisson grove,Birmingham 
412,-1.8927490000000002,52.559501000000004, brockwell road,Birmingham 
413,-1.8861990000000002,52.559557999999996, swains grove,Birmingham 
414,-1.8905349999999999,52.559805000000004, etta grove,Birmingham 
415,-1.8905349999999999,52.559805000000004, etta grove,Birmingham 
416,-1.8852849999999999,52.559189, anerley grove,Birmingham 
417,-1.884682,52.558505000000004, esher road,Birmingham 
418,-1.89051,52.557998, surrey road,Birmingham 
419,-1.8905349999999999,52.559805000000004, etta grove,Birmingham 
420,-1.8927490000000002,52.559501000000004, brockwell road,Birmingham 
421,-1.89051,52.557998, surrey road,Birmingham 
422,-1.889356,52.559318999999995, lisson grove,Birmingham 
423,-1.887882,52.558921999999995, cooksey lane,Birmingham 
424,-1.884682,52.558505000000004, esher road,Birmingham 
425,-1.8905349999999999,52.559805000000004, etta grove,Birmingham 
426,-1.889356,52.559318999999995, lisson grove,Birmingham 
427,-1.8927490000000002,52.559501000000004, brockwell road,Birmingham 
428,-1.8861990000000002,52.559557999999996, swains grove,Birmingham 
429,-1.8927490000000002,52.559501000000004, brockwell road,Birmingham 
430,-1.890987,52.561909, sports/recreation area,Birmingham 
431,-1.884682,52.558505000000004, esher road,Birmingham 
432,-1.889356,52.559318999999995, lisson grove,Birmingham 
433,-1.8861990000000002,52.559557999999996, swains grove,Birmingham 
434,-1.889356,52.559318999999995, lisson grove,Birmingham 
435,-1.884682,52.558505000000004, esher road,Birmingham 
436,-1.889356,52.559318999999995, lisson grove,Birmingham 
437,-1.889356,52.559318999999995, lisson grove,Birmingham 
438,-1.889356,52.559318999999995, lisson grove,Birmingham 
439,-1.889356,52.559318999999995, lisson grove,Birmingham 
440,-1.8861990000000002,52.559557999999996, swains grove,Birmingham 
441,-1.8224619999999998,52.562923, victoria road,Birmingham 
442,-1.8224619999999998,52.562923, victoria road,Birmingham 
443,-1.8252259999999998,52.561552, shopping area,Birmingham 
444,-1.824023,52.55986, farthing pools close,Birmingham 
445,-1.8224619999999998,52.562923, victoria road,Birmingham 
446,-1.823146,52.56172900000001, shopping area,Birmingham 
447,-1.824197,52.564381999999995, station street,Birmingham 
448,-1.82335,52.56233100000001, shopping area,Birmingham 
449,-1.824471,52.562243, further/higher educational building,Birmingham 
450,-1.8274700000000001,52.564980000000006, lyndon road,Birmingham 
451,-1.824023,52.55986, farthing pools close,Birmingham 
452,-1.824084,52.563276, shopping area,Birmingham 
453,-1.8224619999999998,52.562923, victoria road,Birmingham 
454,-1.826972,52.564089, park road,Birmingham 
455,-1.82245,52.56225799999999, parking area,Birmingham 
456,-1.826788,52.558209999999995, birmingham road,Birmingham 
457,-1.822914,52.564254000000005, mill street,Birmingham 
458,-1.823146,52.56172900000001, shopping area,Birmingham 
459,-1.824084,52.563276, shopping area,Birmingham 
460,-1.824197,52.564381999999995, station street,Birmingham 
461,-1.826366,52.556932999999994, maney corner,Birmingham 
462,-1.824197,52.564381999999995, station street,Birmingham 
463,-1.826788,52.558209999999995, birmingham road,Birmingham 
464,-1.824471,52.562243, further/higher educational building,Birmingham 
465,-1.824084,52.563276, shopping area,Birmingham 
466,-1.8259009999999998,52.562532999999995, brassington avenue,Birmingham 
467,-1.8259009999999998,52.562532999999995, brassington avenue,Birmingham 
468,-1.824084,52.563276, shopping area,Birmingham 
469,-1.8259009999999998,52.562532999999995, brassington avenue,Birmingham 
470,-1.8259009999999998,52.562532999999995, brassington avenue,Birmingham 
471,-1.824471,52.562243, further/higher educational building,Birmingham 
472,-1.8281029999999998,52.56161899999999, manor road,Birmingham 
473,-1.832648,52.561203000000006, parking area,Birmingham 
474,-1.82565,52.558909, parking area,Birmingham 
475,-1.82283,52.559606, deeplow close,Birmingham 
476,-1.822914,52.564254000000005, mill street,Birmingham 
477,-1.8224619999999998,52.562923, victoria road,Birmingham 
478,-1.8286200000000001,52.561341000000006, woodland rise,Birmingham 
479,-1.822914,52.564254000000005, mill street,Birmingham 
480,-1.822914,52.564254000000005, mill street,Birmingham 
481,-1.8252259999999998,52.561552, shopping area,Birmingham 
482,-1.8286200000000001,52.561341000000006, woodland rise,Birmingham 
483,-1.832648,52.561203000000006, parking area,Birmingham 
484,-1.825161,52.563152, shopping area,Birmingham 
485,-1.832648,52.561203000000006, parking area,Birmingham 
486,-1.8285529999999999,52.563391, fawdry close,Birmingham 
487,-1.824471,52.562243, further/higher educational building,Birmingham 
488,-1.8250939999999998,52.557776000000004, while road,Birmingham 
489,-1.8285529999999999,52.563391, fawdry close,Birmingham 
490,-1.825274,52.560734, a5127,Birmingham 
491,-1.819998,52.559503, parking area,Birmingham 
492,-1.819998,52.559503, parking area,Birmingham 
493,-1.8185470000000001,52.560697, upper holland road,Birmingham 
494,-1.815003,52.561733999999994, coleshill road,Birmingham 
495,-1.819998,52.559503, parking area,Birmingham 
496,-1.819998,52.559503, parking area,Birmingham 
497,-1.8168259999999998,52.556081999999996, chavasse road,Birmingham 
498,-1.8169240000000002,52.557377, sports/recreation area,Birmingham 
499,-1.819857,52.561580000000006, victoria road,Birmingham 
500,-1.8185470000000001,52.560697, upper holland road,Birmingham 
501,-1.8168259999999998,52.556081999999996, chavasse road,Birmingham 
502,-1.819998,52.559503, parking area,Birmingham 
503,-1.8168259999999998,52.556081999999996, chavasse road,Birmingham 
504,-1.819232,52.555726, coles lane,Birmingham 
505,-1.819998,52.559503, parking area,Birmingham 
506,-1.819998,52.559503, parking area,Birmingham 
507,-1.8217700000000001,52.555389, maple road,Birmingham 
508,-1.8217700000000001,52.555389, maple road,Birmingham 
509,-1.8185169999999997,52.553872999999996, shipton road,Birmingham 
510,-1.833102,52.550281000000005, mayfield road,Birmingham 
511,-1.833732,52.547414, walter cobb drive,Birmingham 
512,-1.827549,52.552413, tudor way,Birmingham 
513,-1.83043,52.547157999999996, eastern road,Birmingham 
514,-1.828071,52.554481, beeches walk,Birmingham 
515,-1.8236,52.551301, watson close,Birmingham 
516,-1.827434,52.547675, vesey road,Birmingham 
517,-1.8265639999999999,52.55514399999999, st peters close,Birmingham 
518,-1.8265639999999999,52.55514399999999, st peters close,Birmingham 
519,-1.857,52.538976, warrington drive,Birmingham 
520,-1.855648,52.542283, potter close,Birmingham 
521,-1.8588810000000002,52.540884, walsh grove,Birmingham 
522,-1.8587650000000002,52.54046999999999, marshmont way,Birmingham 
523,-1.855961,52.541303000000006, rufford close,Birmingham 
524,-1.857,52.538976, warrington drive,Birmingham 
525,-1.8587650000000002,52.54046999999999, marshmont way,Birmingham 
526,-1.857,52.538976, warrington drive,Birmingham 
527,-1.857546,52.53880600000001, bagshawe croft,Birmingham 
528,-1.854534,52.540321, hallot close,Birmingham 
529,-1.859647,52.555125, alcester drive,Birmingham 
530,-1.8625509999999998,52.555749, markham road,Birmingham 
531,-1.864968,52.551553000000006, honiley drive,Birmingham 
532,-1.864968,52.551553000000006, honiley drive,Birmingham 
533,-1.864968,52.551553000000006, honiley drive,Birmingham 
534,-1.864968,52.551553000000006, honiley drive,Birmingham 
535,-1.861203,52.552932999999996, churchill road,Birmingham 
536,-1.8636709999999999,52.551093, parkwood drive,Birmingham 
537,-1.859647,52.555125, alcester drive,Birmingham 
538,-1.865637,52.554727, milcote drive,Birmingham 
539,-1.864968,52.551553000000006, honiley drive,Birmingham 
540,-1.865637,52.554727, milcote drive,Birmingham 
541,-1.864968,52.551553000000006, honiley drive,Birmingham 
542,-1.8489919999999997,52.552478, carnwath road,Birmingham 
543,-1.85263,52.553966, monmouth drive,Birmingham 
544,-1.8549189999999998,52.548781000000005, jockey road,Birmingham 
545,-1.8549189999999998,52.548781000000005, jockey road,Birmingham 
546,-1.8505900000000002,52.54687, welford road,Birmingham 
547,-1.8492810000000002,52.545826, haselor road,Birmingham 
548,-1.849363,52.547714, maxstoke road,Birmingham 
549,-1.849363,52.547714, maxstoke road,Birmingham 
550,-1.858308,52.549675, supermarket,Birmingham 
551,-1.858308,52.549675, supermarket,Birmingham 
552,-1.858308,52.549675, supermarket,Birmingham 
553,-1.860025,52.5477, windsor road,Birmingham 
554,-1.860899,52.550892000000005, shopping area,Birmingham 
555,-1.8610229999999999,52.54922, petrol station,Birmingham 
556,-1.860899,52.550892000000005, shopping area,Birmingham 
557,-1.858308,52.549675, supermarket,Birmingham 
558,-1.8555549999999998,52.547991, plants close,Birmingham 
559,-1.859143,52.546872, george road,Birmingham 
560,-1.8555549999999998,52.547991, plants close,Birmingham 
561,-1.858308,52.549675, supermarket,Birmingham 
562,-1.858308,52.549675, supermarket,Birmingham 
563,-1.8555549999999998,52.547991, plants close,Birmingham 
564,-1.8555549999999998,52.547991, plants close,Birmingham 
565,-1.858468,52.545801000000004, margaret road,Birmingham 
566,-1.858308,52.549675, supermarket,Birmingham 
567,-1.858308,52.549675, supermarket,Birmingham 
568,-1.858308,52.549675, supermarket,Birmingham 
569,-1.858308,52.549675, supermarket,Birmingham 
570,-1.858308,52.549675, supermarket,Birmingham 
571,-1.8592119999999999,52.548283, b4149,Birmingham 
572,-1.858308,52.549675, supermarket,Birmingham 
573,-1.858308,52.549675, supermarket,Birmingham 
574,-1.858308,52.549675, supermarket,Birmingham 
575,-1.860899,52.550892000000005, shopping area,Birmingham 
576,-1.858308,52.549675, supermarket,Birmingham 
577,-1.860899,52.550892000000005, shopping area,Birmingham 
578,-1.860899,52.550892000000005, shopping area,Birmingham 
579,-1.858308,52.549675, supermarket,Birmingham 
580,-1.860899,52.550892000000005, shopping area,Birmingham 
581,-1.858308,52.549675, supermarket,Birmingham 
582,-1.858308,52.549675, supermarket,Birmingham 
583,-1.860899,52.550892000000005, shopping area,Birmingham 
584,-1.858308,52.549675, supermarket,Birmingham 
585,-1.8555549999999998,52.547991, plants close,Birmingham 
586,-1.858308,52.549675, supermarket,Birmingham 
587,-1.8633950000000001,52.549915000000006, roylesden crescent,Birmingham 
588,-1.8610229999999999,52.54922, petrol station,Birmingham 
589,-1.8633950000000001,52.549915000000006, roylesden crescent,Birmingham 
590,-1.860899,52.550892000000005, shopping area,Birmingham 
591,-1.858308,52.549675, supermarket,Birmingham 
592,-1.8555549999999998,52.547991, plants close,Birmingham 
593,-1.8612060000000001,52.547341, elizabeth road,Birmingham 
594,-1.8612060000000001,52.547341, elizabeth road,Birmingham 
595,-1.8555549999999998,52.547991, plants close,Birmingham 
596,-1.858308,52.549675, supermarket,Birmingham 
597,-1.8555549999999998,52.547991, plants close,Birmingham 
598,-1.8555549999999998,52.547991, plants close,Birmingham 
599,-1.858308,52.549675, supermarket,Birmingham 
600,-1.8555549999999998,52.547991, plants close,Birmingham 
601,-1.8555549999999998,52.547991, plants close,Birmingham 
602,-1.8610229999999999,52.54922, petrol station,Birmingham 
603,-1.8592119999999999,52.548283, b4149,Birmingham 
604,-1.8592119999999999,52.548283, b4149,Birmingham 
605,-1.8410119999999999,52.548701, union drive,Birmingham 
606,-1.848699,52.543389000000005, fernwood road,Birmingham 
607,-1.8410119999999999,52.548701, union drive,Birmingham 
608,-1.845889,52.545713, antrobus road,Birmingham 
609,-1.8410119999999999,52.548701, union drive,Birmingham 
610,-1.845889,52.545713, antrobus road,Birmingham 
611,-1.8410119999999999,52.548701, union drive,Birmingham 
612,-1.8410119999999999,52.548701, union drive,Birmingham 
613,-1.8410119999999999,52.548701, union drive,Birmingham 
614,-1.8410119999999999,52.548701, union drive,Birmingham 
615,-1.8410119999999999,52.548701, union drive,Birmingham 
616,-1.8410119999999999,52.548701, union drive,Birmingham 
617,-1.870116,52.551154000000004, sudbury grove,Birmingham 
618,-1.870116,52.551154000000004, sudbury grove,Birmingham 
619,-1.872636,52.551777, banners walk,Birmingham 
620,-1.872636,52.551777, banners walk,Birmingham 
621,-1.872636,52.551777, banners walk,Birmingham 
622,-1.876454,52.552617000000005, acton grove,Birmingham 
623,-1.872636,52.551777, banners walk,Birmingham 
624,-1.876498,52.552393, longford road,Birmingham 
625,-1.876454,52.552617000000005, acton grove,Birmingham 
626,-1.876454,52.552617000000005, acton grove,Birmingham 
627,-1.876454,52.552617000000005, acton grove,Birmingham 
628,-1.870116,52.551154000000004, sudbury grove,Birmingham 
629,-1.874165,52.553594999999994, hartley road,Birmingham 
630,-1.872636,52.551777, banners walk,Birmingham 
631,-1.876454,52.552617000000005, acton grove,Birmingham 
632,-1.876454,52.552617000000005, acton grove,Birmingham 
633,-1.8799150000000002,52.55405, rough road,Birmingham 
634,-1.8799150000000002,52.55405, rough road,Birmingham 
635,-1.8819279999999998,52.551643000000006, streatham grove,Birmingham 
636,-1.8819279999999998,52.551643000000006, streatham grove,Birmingham 
637,-1.8799150000000002,52.55405, rough road,Birmingham 
638,-1.8799150000000002,52.55405, rough road,Birmingham 
639,-1.878796,52.553501000000004, colindale road,Birmingham 
640,-1.874393,52.551033, kings road,Birmingham 
641,-1.8775439999999999,52.552879000000004, longford grove,Birmingham 
642,-1.8799150000000002,52.55405, rough road,Birmingham 
643,-1.878796,52.553501000000004, colindale road,Birmingham 
644,-1.874393,52.551033, kings road,Birmingham 
645,-1.8775439999999999,52.552879000000004, longford grove,Birmingham 
646,-1.874393,52.551033, kings road,Birmingham 
647,-1.874393,52.551033, kings road,Birmingham 
648,-1.8775439999999999,52.552879000000004, longford grove,Birmingham 
649,-1.8775439999999999,52.552879000000004, longford grove,Birmingham 
650,-1.878796,52.553501000000004, colindale road,Birmingham 
651,-1.8775439999999999,52.552879000000004, longford grove,Birmingham 
652,-1.8775439999999999,52.552879000000004, longford grove,Birmingham 
653,-1.878796,52.553501000000004, colindale road,Birmingham 
654,-1.874393,52.551033, kings road,Birmingham 
655,-1.8819279999999998,52.551643000000006, streatham grove,Birmingham 
656,-1.8819279999999998,52.551643000000006, streatham grove,Birmingham 
657,-1.8819279999999998,52.551643000000006, streatham grove,Birmingham 
658,-1.874393,52.551033, kings road,Birmingham 
659,-1.874393,52.551033, kings road,Birmingham 
660,-1.874393,52.551033, kings road,Birmingham 
661,-1.8775439999999999,52.552879000000004, longford grove,Birmingham 
662,-1.878796,52.553501000000004, colindale road,Birmingham 
663,-1.874393,52.551033, kings road,Birmingham 
664,-1.874393,52.551033, kings road,Birmingham 
665,-1.878796,52.553501000000004, colindale road,Birmingham 
666,-1.874393,52.551033, kings road,Birmingham 
667,-1.8775439999999999,52.552879000000004, longford grove,Birmingham 
668,-1.8775439999999999,52.552879000000004, longford grove,Birmingham 
669,-1.8799150000000002,52.55405, rough road,Birmingham 
670,-1.8819279999999998,52.551643000000006, streatham grove,Birmingham 
671,-1.878268,52.547243, sidcup road,Birmingham 
672,-1.877723,52.546882999999994, landswood close,Birmingham 
673,-1.8718669999999997,52.547343999999995, finchley road,Birmingham 
674,-1.8792779999999998,52.549744, caversham road,Birmingham 
675,-1.8792779999999998,52.549744, caversham road,Birmingham 
676,-1.8792779999999998,52.549744, caversham road,Birmingham 
677,-1.8792779999999998,52.549744, caversham road,Birmingham 
678,-1.8781189999999999,52.547819, ealing grove,Birmingham 
679,-1.876946,52.550720999999996, hornsey road,Birmingham 
680,-1.878268,52.547243, sidcup road,Birmingham 
681,-1.8781189999999999,52.547819, ealing grove,Birmingham 
682,-1.877723,52.546882999999994, landswood close,Birmingham 
683,-1.879461,52.54750500000001, crayford road,Birmingham 
684,-1.872945,52.546994999999995, eltham grove,Birmingham 
685,-1.879461,52.54750500000001, crayford road,Birmingham 
686,-1.879461,52.54750500000001, crayford road,Birmingham 
687,-1.8758709999999998,52.549946999999996, cranehouse road,Birmingham 
688,-1.8758709999999998,52.549946999999996, cranehouse road,Birmingham 
689,-1.877493,52.544716, pembury croft,Birmingham 
690,-1.8781189999999999,52.547819, ealing grove,Birmingham 
691,-1.877362,52.549471999999994, peckham road,Birmingham 
692,-1.877362,52.549471999999994, peckham road,Birmingham 
693,-1.8803279999999998,52.548944999999996, binstead road,Birmingham 
694,-1.8845049999999999,52.547366000000004, kingstanding road,Birmingham 
695,-1.8845049999999999,52.547366000000004, kingstanding road,Birmingham 
696,-1.880426,52.550698, carshalton road,Birmingham 
697,-1.880426,52.550698, carshalton road,Birmingham 
698,-1.8803279999999998,52.548944999999996, binstead road,Birmingham 
699,-1.884437,52.550971, supermarket,Birmingham 
700,-1.880426,52.550698, carshalton road,Birmingham 
701,-1.8835419999999998,52.549217000000006, petrol station,Birmingham 
702,-1.8803279999999998,52.548944999999996, binstead road,Birmingham 
703,-1.880968,52.546761, leyton grove,Birmingham 
704,-1.8845049999999999,52.547366000000004, kingstanding road,Birmingham 
705,-1.884437,52.550971, supermarket,Birmingham 
706,-1.8845049999999999,52.547366000000004, kingstanding road,Birmingham 
707,-1.8835419999999998,52.549217000000006, petrol station,Birmingham 
708,-1.8803279999999998,52.548944999999996, binstead road,Birmingham 
709,-1.8808919999999998,52.547264, hurlingham road,Birmingham 
710,-1.880426,52.550698, carshalton road,Birmingham 
711,-1.880426,52.550698, carshalton road,Birmingham 
712,-1.8845049999999999,52.547366000000004, kingstanding road,Birmingham 
713,-1.8803279999999998,52.548944999999996, binstead road,Birmingham 
714,-1.881984,52.547274, firbeck road,Birmingham 
715,-1.884437,52.550971, supermarket,Birmingham 
716,-1.884437,52.550971, supermarket,Birmingham 
717,-1.881989,52.550959999999996, harringay road,Birmingham 
718,-1.8742860000000001,52.54731999999999, edmonton avenue,Birmingham 
719,-1.874452,52.545873, clapton grove,Birmingham 
720,-1.876077,52.544778, beckenham avenue,Birmingham 
721,-1.8706939999999999,52.545168000000004, greenwood place,Birmingham 
722,-1.878513,52.543890000000005, danesbury crescent,Birmingham 
723,-1.8742860000000001,52.54731999999999, edmonton avenue,Birmingham 
724,-1.8706939999999999,52.545168000000004, greenwood place,Birmingham 
725,-1.874452,52.545873, clapton grove,Birmingham 
726,-1.878513,52.543890000000005, danesbury crescent,Birmingham 
727,-1.8742860000000001,52.54731999999999, edmonton avenue,Birmingham 
728,-1.8742860000000001,52.54731999999999, edmonton avenue,Birmingham 
729,-1.8742860000000001,52.54731999999999, edmonton avenue,Birmingham 
730,-1.8742860000000001,52.54731999999999, edmonton avenue,Birmingham 
731,-1.8742860000000001,52.54731999999999, edmonton avenue,Birmingham 
732,-1.8757080000000002,52.545128000000005, betsham close,Birmingham 
733,-1.8742860000000001,52.54731999999999, edmonton avenue,Birmingham 
734,-1.8742860000000001,52.54731999999999, edmonton avenue,Birmingham 
735,-1.8763029999999998,52.543061, warren farm road,Birmingham 
736,-1.8779299999999999,52.541516, aylesbury crescent,Birmingham 
737,-1.8779299999999999,52.541516, aylesbury crescent,Birmingham 
738,-1.8845580000000002,52.543932, hotspur road,Birmingham 
739,-1.883774,52.544965000000005, tansley grove,Birmingham 
740,-1.8779299999999999,52.541516, aylesbury crescent,Birmingham 
741,-1.8779299999999999,52.541516, aylesbury crescent,Birmingham 
742,-1.8811069999999999,52.544171999999996, cranbourne road,Birmingham 
743,-1.882407,52.543282999999995, cranbourne grove,Birmingham 
744,-1.8779299999999999,52.541516, aylesbury crescent,Birmingham 
745,-1.8779299999999999,52.541516, aylesbury crescent,Birmingham 
746,-1.8779299999999999,52.541516, aylesbury crescent,Birmingham 
747,-1.8763029999999998,52.543061, warren farm road,Birmingham 
748,-1.8834259999999998,52.542691000000005, rodwell grove,Birmingham 
749,-1.8834259999999998,52.542691000000005, rodwell grove,Birmingham 
750,-1.877674,52.53814499999999, epping grove,Birmingham 
751,-1.8834259999999998,52.542691000000005, rodwell grove,Birmingham 
752,-1.8744610000000002,52.537512, supermarket,Birmingham 
753,-1.8805290000000001,52.539739000000004, chingford road,Birmingham 
754,-1.877674,52.53814499999999, epping grove,Birmingham 
755,-1.8800310000000002,52.538615, supermarket,Birmingham 
756,-1.8834259999999998,52.542691000000005, rodwell grove,Birmingham 
757,-1.874941,52.53985, dulwich grove,Birmingham 
758,-1.87798,52.539413, fulwell grove,Birmingham 
759,-1.8765169999999998,52.540643, dulwich road,Birmingham 
760,-1.8834259999999998,52.542691000000005, rodwell grove,Birmingham 
761,-1.8805290000000001,52.539739000000004, chingford road,Birmingham 
762,-1.87798,52.539413, fulwell grove,Birmingham 
763,-1.8744610000000002,52.537512, supermarket,Birmingham 
764,-1.8834259999999998,52.542691000000005, rodwell grove,Birmingham 
765,-1.877674,52.53814499999999, epping grove,Birmingham 
766,-1.8782,52.539638000000004, norbiton road,Birmingham 
767,-1.874941,52.53985, dulwich grove,Birmingham 
768,-1.877674,52.53814499999999, epping grove,Birmingham 
769,-1.8834259999999998,52.542691000000005, rodwell grove,Birmingham 
770,-1.8782,52.539638000000004, norbiton road,Birmingham 
771,-1.8805290000000001,52.539739000000004, chingford road,Birmingham 
772,-1.873427,52.538256999999994, mayfair close,Birmingham 
773,-1.7955029999999998,52.548747999999996, terry drive,Birmingham 
774,-1.796935,52.55465600000001, newhouse farm close,Birmingham 
775,-1.7886009999999999,52.539476, the moor,Birmingham 
776,-1.7936169999999998,52.538954000000004, pytman drive,Birmingham 
777,-1.7936169999999998,52.538954000000004, pytman drive,Birmingham 
778,-1.795241,52.535352, ashurst road,Birmingham 
779,-1.7977880000000002,52.539267, hargreave close,Birmingham 
780,-1.794514,52.53306800000001, orton avenue,Birmingham 
781,-1.794514,52.53306800000001, orton avenue,Birmingham 
782,-1.7918150000000002,52.55830600000001, springfield crescent,Birmingham 
783,-1.787514,52.560196, petrol station,Birmingham 
784,-1.753237,52.538311, wiggins hill road,Birmingham 
785,-1.755711,52.530908, the greaves,Birmingham 
786,-1.7919720000000001,52.556293000000004, laburnum drive,Birmingham 
787,-1.7850549999999998,52.562132999999996, holbeche road,Birmingham 
788,-1.9088439999999998,52.550993000000005, old horns crescent,Birmingham 
789,-1.903309,52.5532, brackenfield road,Birmingham 
790,-1.903316,52.549891, west mews,Birmingham 
791,-1.9044029999999998,52.552248, ringinglow road,Birmingham 
792,-1.9088439999999998,52.550993000000005, old horns crescent,Birmingham 
793,-1.9088439999999998,52.550993000000005, old horns crescent,Birmingham 
794,-1.9088439999999998,52.550993000000005, old horns crescent,Birmingham 
795,-1.9088439999999998,52.550993000000005, old horns crescent,Birmingham 
796,-1.9088439999999998,52.550993000000005, old horns crescent,Birmingham 
797,-1.9088439999999998,52.550993000000005, old horns crescent,Birmingham 
798,-1.9088439999999998,52.550993000000005, old horns crescent,Birmingham 
799,-1.9088439999999998,52.550993000000005, old horns crescent,Birmingham 
800,-1.9088439999999998,52.550993000000005, old horns crescent,Birmingham 
801,-1.9088439999999998,52.550993000000005, old horns crescent,Birmingham 
802,-1.9088439999999998,52.550993000000005, old horns crescent,Birmingham 
803,-1.90303,52.546026, further/higher educational building,Birmingham 
804,-1.9060869999999999,52.55055, ashgrove road,Birmingham 
805,-1.9146779999999999,52.546583, lindsay road,Birmingham 
806,-1.90303,52.546026, further/higher educational building,Birmingham 
807,-1.90303,52.546026, further/higher educational building,Birmingham 
808,-1.9044029999999998,52.552248, ringinglow road,Birmingham 
809,-1.9146779999999999,52.546583, lindsay road,Birmingham 
810,-1.9146779999999999,52.546583, lindsay road,Birmingham 
811,-1.904879,52.550216000000006, priestfield close,Birmingham 
812,-1.904879,52.550216000000006, priestfield close,Birmingham 
813,-1.9146779999999999,52.546583, lindsay road,Birmingham 
814,-1.9146779999999999,52.546583, lindsay road,Birmingham 
815,-1.901318,52.553243, calver grove,Birmingham 
816,-1.9088439999999998,52.550993000000005, old horns crescent,Birmingham 
817,-1.901318,52.553243, calver grove,Birmingham 
818,-1.901318,52.553243, calver grove,Birmingham 
819,-1.8999080000000002,52.550491, east mews,Birmingham 
820,-1.8980290000000002,52.547001, randwick grove,Birmingham 
821,-1.8947919999999998,52.55005500000001, fairbourne avenue,Birmingham 
822,-1.896509,52.547261, howley avenue,Birmingham 
823,-1.8999080000000002,52.550491, east mews,Birmingham 
824,-1.8980290000000002,52.547001, randwick grove,Birmingham 
825,-1.9034779999999998,52.543428000000006, malthouse lane,Birmingham 
826,-1.896218,52.545840000000005, darleydale avenue,Birmingham 
827,-1.899154,52.545042, delhurst road,Birmingham 
828,-1.9034779999999998,52.543428000000006, malthouse lane,Birmingham 
829,-1.8999080000000002,52.550491, east mews,Birmingham 
830,-1.8999080000000002,52.550491, east mews,Birmingham 
831,-1.8999080000000002,52.550491, east mews,Birmingham 
832,-1.896255,52.548536999999996, oscott school lane,Birmingham 
833,-1.8958110000000001,52.549471999999994, amblecote avenue,Birmingham 
834,-1.896218,52.545840000000005, darleydale avenue,Birmingham 
835,-1.9034779999999998,52.543428000000006, malthouse lane,Birmingham 
836,-1.8947919999999998,52.55005500000001, fairbourne avenue,Birmingham 
837,-1.8958110000000001,52.549471999999994, amblecote avenue,Birmingham 
838,-1.896255,52.548536999999996, oscott school lane,Birmingham 
839,-1.9034779999999998,52.543428000000006, malthouse lane,Birmingham 
840,-1.896218,52.545840000000005, darleydale avenue,Birmingham 
841,-1.893231,52.543176, brentwood grove,Birmingham 
842,-1.894016,52.541594999999994, birkenshaw road,Birmingham 
843,-1.893231,52.543176, brentwood grove,Birmingham 
844,-1.893389,52.544831, cavandale avenue,Birmingham 
845,-1.895029,52.537263, pinewood close,Birmingham 
846,-1.8965349999999999,52.536392000000006, lilac avenue,Birmingham 
847,-1.891566,52.542626, birdbrook road,Birmingham 
848,-1.8947779999999999,52.543465000000005, old oscott lane,Birmingham 
849,-1.865492,52.53455400000001, wendover road,Birmingham 
850,-1.8667310000000001,52.539113, flamingo gardens,Birmingham 
851,-1.866466,52.533998, osprey road,Birmingham 
852,-1.865591,52.535947, kingfisher road,Birmingham 
853,-1.8643189999999998,52.53698000000001, capilano road,Birmingham 
854,-1.8708639999999999,52.537401, lavender gardens,Birmingham 
855,-1.8702310000000002,52.537022, hastings road,Birmingham 
856,-1.866466,52.533998, osprey road,Birmingham 
857,-1.865492,52.53455400000001, wendover road,Birmingham 
858,-1.865492,52.53455400000001, wendover road,Birmingham 
859,-1.8633790000000001,52.535971999999994, dovedale road,Birmingham 
860,-1.8718970000000001,52.53713199999999, royal grove,Birmingham 
861,-1.865591,52.535947, kingfisher road,Birmingham 
862,-1.8633790000000001,52.535971999999994, dovedale road,Birmingham 
863,-1.8676380000000001,52.536435, witton lodge road,Birmingham 
864,-1.866934,52.535167, nightingale close,Birmingham 
865,-1.8665580000000002,52.53791700000001, park/open space,Birmingham 
866,-1.8667310000000001,52.539113, flamingo gardens,Birmingham 
867,-1.875806,52.536291000000006, crossways green,Birmingham 
868,-1.865492,52.53455400000001, wendover road,Birmingham 
869,-1.8676380000000001,52.536435, witton lodge road,Birmingham 
870,-1.872885,52.536989, jubilee gardens,Birmingham 
871,-1.865492,52.53455400000001, wendover road,Birmingham 
872,-1.8667310000000001,52.539113, flamingo gardens,Birmingham 
873,-1.8667310000000001,52.539113, flamingo gardens,Birmingham 
874,-1.8694979999999999,52.535799, phoenix rise,Birmingham 
875,-1.875806,52.536291000000006, crossways green,Birmingham 
876,-1.8665580000000002,52.53791700000001, park/open space,Birmingham 
877,-1.8633790000000001,52.535971999999994, dovedale road,Birmingham 
878,-1.865591,52.535947, kingfisher road,Birmingham 
879,-1.8633790000000001,52.535971999999994, dovedale road,Birmingham 
880,-1.8633790000000001,52.535971999999994, dovedale road,Birmingham 
881,-1.8676380000000001,52.536435, witton lodge road,Birmingham 
882,-1.8643189999999998,52.53698000000001, capilano road,Birmingham 
883,-1.8727619999999998,52.538661, roedean close,Birmingham 
884,-1.8727619999999998,52.538661, roedean close,Birmingham 
885,-1.869258,52.542038, epsom grove,Birmingham 
886,-1.8708919999999998,52.542992000000005, neasden grove,Birmingham 
887,-1.8727619999999998,52.538661, roedean close,Birmingham 
888,-1.8749779999999998,52.542278, halsbury grove,Birmingham 
889,-1.8749779999999998,52.542278, halsbury grove,Birmingham 
890,-1.8749779999999998,52.542278, halsbury grove,Birmingham 
891,-1.8726349999999998,52.541826, brackenbury road,Birmingham 
892,-1.873834,52.540379, wigmore grove,Birmingham 
893,-1.8749779999999998,52.542278, halsbury grove,Birmingham 
894,-1.8707939999999998,52.541346999999995, rawdon grove,Birmingham 
895,-1.8749779999999998,52.542278, halsbury grove,Birmingham 
896,-1.873834,52.540379, wigmore grove,Birmingham 
897,-1.8749779999999998,52.542278, halsbury grove,Birmingham 
898,-1.872336,52.543228000000006, elswick grove,Birmingham 
899,-1.8708919999999998,52.542992000000005, neasden grove,Birmingham 
900,-1.870568,52.547855000000006, sports/recreation area,Birmingham 
901,-1.870568,52.547855000000006, sports/recreation area,Birmingham 
902,-1.870568,52.547855000000006, sports/recreation area,Birmingham 
903,-1.86965,52.549158, waltham grove,Birmingham 
904,-1.868377,52.55069399999999, hatcham road,Birmingham 
905,-1.86965,52.549158, waltham grove,Birmingham 
906,-1.868377,52.55069399999999, hatcham road,Birmingham 
907,-1.8657860000000002,52.54919, kings road,Birmingham 
908,-1.869371,52.548888, tottenham crescent,Birmingham 
909,-1.870055,52.546938, homerton road,Birmingham 
910,-1.86965,52.549158, waltham grove,Birmingham 
911,-1.870568,52.547855000000006, sports/recreation area,Birmingham 
912,-1.86965,52.549158, waltham grove,Birmingham 
913,-1.870055,52.546938, homerton road,Birmingham 
914,-1.869371,52.548888, tottenham crescent,Birmingham 
915,-1.867805,52.544715000000004, sports/recreation area,Birmingham 
916,-1.867805,52.544715000000004, sports/recreation area,Birmingham 
917,-1.869371,52.548888, tottenham crescent,Birmingham 
918,-1.869158,52.546092, sports/recreation area,Birmingham 
919,-1.868377,52.55069399999999, hatcham road,Birmingham 
920,-1.870055,52.546938, homerton road,Birmingham 
921,-1.8671520000000001,52.54626, twickenham road,Birmingham 
922,-1.8671520000000001,52.54626, twickenham road,Birmingham 
923,-1.869371,52.548888, tottenham crescent,Birmingham 
924,-1.870568,52.547855000000006, sports/recreation area,Birmingham 
925,-1.869371,52.548888, tottenham crescent,Birmingham 
926,-1.867805,52.544715000000004, sports/recreation area,Birmingham 
927,-1.870055,52.546938, homerton road,Birmingham 
928,-1.8685759999999998,52.543206000000005, maple drive,Birmingham 
929,-1.86632,52.54809300000001, petersham road,Birmingham 
930,-1.86632,52.54809300000001, petersham road,Birmingham 
931,-1.8685759999999998,52.543206000000005, maple drive,Birmingham 
932,-1.865115,52.546958999999994, rivington crescent,Birmingham 
933,-1.8685759999999998,52.543206000000005, maple drive,Birmingham 
934,-1.8685759999999998,52.543206000000005, maple drive,Birmingham 
935,-1.8685759999999998,52.543206000000005, maple drive,Birmingham 
936,-1.865115,52.546958999999994, rivington crescent,Birmingham 
937,-1.86632,52.54809300000001, petersham road,Birmingham 
938,-1.8623180000000001,52.54525699999999, chinley grove,Birmingham 
939,-1.86632,52.54809300000001, petersham road,Birmingham 
940,-1.8685759999999998,52.543206000000005, maple drive,Birmingham 
941,-1.86632,52.54809300000001, petersham road,Birmingham 
942,-1.86632,52.54809300000001, petersham road,Birmingham 
943,-1.863934,52.547336, parkeston crescent,Birmingham 
944,-1.8621240000000001,52.545913, caxton grove,Birmingham 
945,-1.8685759999999998,52.543206000000005, maple drive,Birmingham 
946,-1.8685759999999998,52.543206000000005, maple drive,Birmingham 
947,-1.8621240000000001,52.545913, caxton grove,Birmingham 
948,-1.8623180000000001,52.54525699999999, chinley grove,Birmingham 
949,-1.862612,52.545653, gainford road,Birmingham 
950,-1.8623180000000001,52.54525699999999, chinley grove,Birmingham 
951,-1.865115,52.546958999999994, rivington crescent,Birmingham 
952,-1.862612,52.545653, gainford road,Birmingham 
953,-1.866248,52.542628, wardour grove,Birmingham 
954,-1.862683,52.54176, shepherds way,Birmingham 
955,-1.862051,52.540987, curlews close,Birmingham 
956,-1.859129,52.542017, casey avenue,Birmingham 
957,-1.8653380000000002,52.541548, thornby road,Birmingham 
958,-1.866167,52.540353, hales gardens,Birmingham 
959,-1.8653380000000002,52.541548, thornby road,Birmingham 
960,-1.863561,52.539207999999995, ash way,Birmingham 
961,-1.861941,52.543261, priors way,Birmingham 
962,-1.861534,52.541292000000006, the hurstway,Birmingham 
963,-1.861941,52.543261, priors way,Birmingham 
964,-1.861534,52.541292000000006, the hurstway,Birmingham 
965,-1.860487,52.541433999999995, st marys view,Birmingham 
966,-1.861941,52.543261, priors way,Birmingham 
967,-1.861941,52.543261, priors way,Birmingham 
968,-1.8635169999999999,52.538939, brookside close,Birmingham 
969,-1.860487,52.541433999999995, st marys view,Birmingham 
970,-1.860487,52.541433999999995, st marys view,Birmingham 
971,-1.8651939999999998,52.540397, chalford road,Birmingham 
972,-1.862683,52.54176, shepherds way,Birmingham 
973,-1.866248,52.542628, wardour grove,Birmingham 
974,-1.860487,52.541433999999995, st marys view,Birmingham 
975,-1.861941,52.543261, priors way,Birmingham 
976,-1.861941,52.543261, priors way,Birmingham 
977,-1.860484,52.542351000000004, archers close,Birmingham 
978,-1.861941,52.543261, priors way,Birmingham 
979,-1.862683,52.54176, shepherds way,Birmingham 
980,-1.8653380000000002,52.541548, thornby road,Birmingham 
981,-1.861941,52.543261, priors way,Birmingham 
982,-1.861534,52.541292000000006, the hurstway,Birmingham 
983,-1.868198,52.541506000000005, wooton grove,Birmingham 
984,-1.8191439999999999,52.551968, maney hill road,Birmingham 
985,-1.814773,52.546217000000006, blackwell road,Birmingham 
986,-1.830212,52.542537, the boulevard,Birmingham 
987,-1.8247900000000001,52.545280000000005, birmingham road,Birmingham 
988,-1.816862,52.536673, beverley close,Birmingham 
989,-1.825818,52.538880000000006, porter close,Birmingham 
990,-1.824677,52.536432999999995, penns lane,Birmingham 
991,-1.824677,52.536432999999995, penns lane,Birmingham 
992,-1.824677,52.536432999999995, penns lane,Birmingham 
993,-1.824677,52.536432999999995, penns lane,Birmingham 
994,-1.825818,52.538880000000006, porter close,Birmingham 
995,-1.8185919999999998,52.535516, penns lane,Birmingham 
996,-1.825818,52.538880000000006, porter close,Birmingham 
997,-1.8185919999999998,52.535516, penns lane,Birmingham 
998,-1.925918,52.535748999999996, cathel drive,Birmingham 
999,-1.928761,52.537629, charnwood road,Birmingham 
1000,-1.9264919999999999,52.536774, rockford road,Birmingham 
1001,-1.9250639999999999,52.535092000000006, dyas avenue,Birmingham 
1002,-1.930059,52.537333, old walsall road,Birmingham 
1003,-1.918277,52.546136, parkwood croft,Birmingham 
1004,-1.912986,52.544585999999995, caddick road,Birmingham 
1005,-1.917382,52.543735, cardington avenue,Birmingham 
1006,-1.912986,52.544585999999995, caddick road,Birmingham 
1007,-1.926496,52.543103, the rise,Birmingham 
1008,-1.928748,52.54537, hamble road,Birmingham 
1009,-1.9321840000000001,52.545587, supermarket,Birmingham 
1010,-1.926496,52.543103, the rise,Birmingham 
1011,-1.9321840000000001,52.545587, supermarket,Birmingham 
1012,-1.925311,52.54606, whitecrest,Birmingham 
1013,-1.929343,52.542502, pedestrian subway,Birmingham 
1014,-1.925311,52.54606, whitecrest,Birmingham 
1015,-1.926496,52.543103, the rise,Birmingham 
1016,-1.925311,52.54606, whitecrest,Birmingham 
1017,-1.925311,52.54606, whitecrest,Birmingham 
1018,-1.925311,52.54606, whitecrest,Birmingham 
1019,-1.923664,52.543847, calshot road,Birmingham 
1020,-1.925311,52.54606, whitecrest,Birmingham 
1021,-1.9218080000000002,52.542632, cramlington road,Birmingham 
1022,-1.920248,52.540859999999995, heston avenue,Birmingham 
1023,-1.920248,52.540859999999995, heston avenue,Birmingham 
1024,-1.9227130000000001,52.539549, perry wood road,Birmingham 
1025,-1.9218080000000002,52.542632, cramlington road,Birmingham 
1026,-1.9218080000000002,52.542632, cramlington road,Birmingham 
1027,-1.9218080000000002,52.542632, cramlington road,Birmingham 
1028,-1.920248,52.540859999999995, heston avenue,Birmingham 
1029,-1.920248,52.540859999999995, heston avenue,Birmingham 
1030,-1.920248,52.540859999999995, heston avenue,Birmingham 
1031,-1.920248,52.540859999999995, heston avenue,Birmingham 
1032,-1.920248,52.540859999999995, heston avenue,Birmingham 
1033,-1.9203689999999998,52.539196999999994, foden road,Birmingham 
1034,-1.91773,52.538872, duxford road,Birmingham 
1035,-1.9203689999999998,52.539196999999994, foden road,Birmingham 
1036,-1.9203689999999998,52.539196999999994, foden road,Birmingham 
1037,-1.9203689999999998,52.539196999999994, foden road,Birmingham 
1038,-1.920073,52.540015000000004, booths farm road,Birmingham 
1039,-1.9203689999999998,52.539196999999994, foden road,Birmingham 
1040,-1.9203689999999998,52.539196999999994, foden road,Birmingham 
1041,-1.9203689999999998,52.539196999999994, foden road,Birmingham 
1042,-1.9162990000000002,52.539581000000005, fowlmere road,Birmingham 
1043,-1.9203689999999998,52.539196999999994, foden road,Birmingham 
1044,-1.9203689999999998,52.539196999999994, foden road,Birmingham 
1045,-1.888754,52.546678, tresham road,Birmingham 
1046,-1.890641,52.547031000000004, lingfield avenue,Birmingham 
1047,-1.885515,52.544633999999995, kingstanding road,Birmingham 
1048,-1.890641,52.547031000000004, lingfield avenue,Birmingham 
1049,-1.890641,52.547031000000004, lingfield avenue,Birmingham 
1050,-1.890641,52.547031000000004, lingfield avenue,Birmingham 
1051,-1.885241,52.548104, heather croft,Birmingham 
1052,-1.888779,52.548377, old oscott hill,Birmingham 
1053,-1.890641,52.547031000000004, lingfield avenue,Birmingham 
1054,-1.888779,52.548377, old oscott hill,Birmingham 
1055,-1.885241,52.548104, heather croft,Birmingham 
1056,-1.890641,52.547031000000004, lingfield avenue,Birmingham 
1057,-1.8903599999999998,52.541340000000005, harleston road,Birmingham 
1058,-1.8903599999999998,52.541340000000005, harleston road,Birmingham 
1059,-1.892207,52.539777, courtenay road,Birmingham 
1060,-1.886178,52.539277, melverley grove,Birmingham 
1061,-1.885038,52.540884999999996, shopping area,Birmingham 
1062,-1.88526,52.54076, westward close,Birmingham 
1063,-1.885038,52.540884999999996, shopping area,Birmingham 
1064,-1.8873080000000002,52.54119300000001, blenheim way,Birmingham 
1065,-1.8894819999999999,52.544414, rodlington avenue,Birmingham 
1066,-1.885388,52.536768, burford road,Birmingham 
1067,-1.8894819999999999,52.544414, rodlington avenue,Birmingham 
1068,-1.885038,52.540884999999996, shopping area,Birmingham 
1069,-1.8873080000000002,52.54119300000001, blenheim way,Birmingham 
1070,-1.8873080000000002,52.54119300000001, blenheim way,Birmingham 
1071,-1.8873080000000002,52.54119300000001, blenheim way,Birmingham 
1072,-1.885038,52.540884999999996, shopping area,Birmingham 
1073,-1.88526,52.54076, westward close,Birmingham 
1074,-1.8873080000000002,52.54119300000001, blenheim way,Birmingham 
1075,-1.8894819999999999,52.544414, rodlington avenue,Birmingham 
1076,-1.885038,52.540884999999996, shopping area,Birmingham 
1077,-1.883317,52.533925, wrekin road,Birmingham 
1078,-1.885718,52.534476, boswell road,Birmingham 
1079,-1.8782860000000001,52.535134, st annes way,Birmingham 
1080,-1.8782860000000001,52.535134, st annes way,Birmingham 
1081,-1.8838700000000002,52.536614, oundle road,Birmingham 
1082,-1.8838700000000002,52.536614, oundle road,Birmingham 
1083,-1.8805330000000002,52.538481000000004, hawthorn road,Birmingham 
1084,-1.8795060000000001,52.536466000000004, hill crest grove,Birmingham 
1085,-1.887562,52.53419, fairford road,Birmingham 
1086,-1.843768,52.536775, goosemoor lane,Birmingham 
1087,-1.8493279999999999,52.54071, guthrum close,Birmingham 
1088,-1.836357,52.535416000000005, trident close,Birmingham 
1089,-1.8493279999999999,52.54071, guthrum close,Birmingham 
1090,-1.8400880000000002,52.53517900000001, amber court,Birmingham 
1091,-1.848761,52.538139, charlecote drive,Birmingham 
1092,-1.843768,52.536775, goosemoor lane,Birmingham 
1093,-1.847214,52.537912, bowling green close,Birmingham 
1094,-1.828197,52.53358000000001, supermarket,Birmingham 
1095,-1.826257,52.53211999999999, chester road,Birmingham 
1096,-1.826257,52.53211999999999, chester road,Birmingham 
1097,-1.826257,52.53211999999999, chester road,Birmingham 
1098,-1.828197,52.53358000000001, supermarket,Birmingham 
1099,-1.828197,52.53358000000001, supermarket,Birmingham 
1100,-1.828575,52.531279000000005, silver birch road,Birmingham 
1101,-1.8293709999999999,52.534948, broadfields road,Birmingham 
1102,-1.828197,52.53358000000001, supermarket,Birmingham 
1103,-1.826257,52.53211999999999, chester road,Birmingham 
1104,-1.8310810000000002,52.535076000000004, florence road,Birmingham 
1105,-1.8310810000000002,52.535076000000004, florence road,Birmingham 
1106,-1.8310810000000002,52.535076000000004, florence road,Birmingham 
1107,-1.826257,52.53211999999999, chester road,Birmingham 
1108,-1.826257,52.53211999999999, chester road,Birmingham 
1109,-1.826257,52.53211999999999, chester road,Birmingham 
1110,-1.826257,52.53211999999999, chester road,Birmingham 
1111,-1.826257,52.53211999999999, chester road,Birmingham 
1112,-1.82212,52.527134, grange road,Birmingham 
1113,-1.826257,52.53211999999999, chester road,Birmingham 
1114,-1.82212,52.527134, grange road,Birmingham 
1115,-1.826257,52.53211999999999, chester road,Birmingham 
1116,-1.828575,52.531279000000005, silver birch road,Birmingham 
1117,-1.8310810000000002,52.535076000000004, florence road,Birmingham 
1118,-1.839044,52.550766, jockey road,Birmingham 
1119,-1.839044,52.550766, jockey road,Birmingham 
1120,-1.831764,52.545415000000006, parking area,Birmingham 
1121,-1.839044,52.550766, jockey road,Birmingham 
1122,-1.839645,52.547503000000006, fir tree grove,Birmingham 
1123,-1.839645,52.547503000000006, fir tree grove,Birmingham 
1124,-1.839044,52.550766, jockey road,Birmingham 
1125,-1.839645,52.547503000000006, fir tree grove,Birmingham 
1126,-1.8396709999999998,52.548492, gate lane,Birmingham 
1127,-1.8430849999999999,52.542329, browns drive,Birmingham 
1128,-1.843649,52.541422, warden avenue,Birmingham 
1129,-1.8438330000000003,52.543526, glebe drive,Birmingham 
1130,-1.8438330000000003,52.543526, glebe drive,Birmingham 
1131,-1.8430849999999999,52.542329, browns drive,Birmingham 
1132,-1.8505759999999998,52.542123, court lane,Birmingham 
1133,-1.8403,52.537732, highfield drive,Birmingham 
1134,-1.8435979999999998,52.539156999999996, littlecote drive,Birmingham 
1135,-1.8382,52.539653, charlecote gardens,Birmingham 
1136,-1.8387779999999998,52.538638, firsholm close,Birmingham 
1137,-1.8413540000000002,52.53999, woodchurch grange,Birmingham 
1138,-1.841994,52.538265, kirkwood avenue,Birmingham 
1139,-1.836428,52.53618, gravelly lane,Birmingham 
1140,-1.833838,52.534954000000006, knipersley road,Birmingham 
1141,-1.827609,52.536958999999996, parking area,Birmingham 
1142,-1.827077,52.537335999999996, shopping area,Birmingham 
1143,-1.830927,52.536811, lime grove,Birmingham 
1144,-1.833875,52.537048999999996, yewtree road,Birmingham 
1145,-1.8358310000000002,52.538265, boldmere close,Birmingham 
1146,-1.8357689999999998,52.539038, blackham drive,Birmingham 
1147,-1.832171,52.535302, parking area,Birmingham 
1148,-1.828756,52.537842000000005, little green lanes,Birmingham 
1149,-1.827898,52.534783999999995, sutton road,Birmingham 
1150,-1.828921,52.540773, green lanes,Birmingham 
1151,-1.828756,52.537842000000005, little green lanes,Birmingham 
1152,-1.827077,52.537335999999996, shopping area,Birmingham 
1153,-1.827609,52.536958999999996, parking area,Birmingham 
1154,-1.832171,52.535302, parking area,Birmingham 
1155,-1.827609,52.536958999999996, parking area,Birmingham 
1156,-1.827609,52.536958999999996, parking area,Birmingham 
1157,-1.8269380000000002,52.535106000000006, supermarket,Birmingham 
1158,-1.8269380000000002,52.535106000000006, supermarket,Birmingham 
1159,-1.827609,52.536958999999996, parking area,Birmingham 
1160,-1.827609,52.536958999999996, parking area,Birmingham 
1161,-1.827609,52.536958999999996, parking area,Birmingham 
1162,-1.8269380000000002,52.535106000000006, supermarket,Birmingham 
1163,-1.830927,52.536811, lime grove,Birmingham 
1164,-1.8288959999999999,52.535801, florence road,Birmingham 
1165,-1.828756,52.537842000000005, little green lanes,Birmingham 
1166,-1.8269380000000002,52.535106000000006, supermarket,Birmingham 
1167,-1.8269380000000002,52.535106000000006, supermarket,Birmingham 
1168,-1.8284880000000001,52.534587, broadfields road,Birmingham 
1169,-1.9075080000000002,52.534055, sterndale road,Birmingham 
1170,-1.9048509999999998,52.535716, thornbridge avenue,Birmingham 
1171,-1.9048509999999998,52.535716, thornbridge avenue,Birmingham 
1172,-1.9081919999999999,52.53850500000001, desford avenue,Birmingham 
1173,-1.9113360000000001,52.53680799999999, monsal road,Birmingham 
1174,-1.9112639999999999,52.536071, edale road,Birmingham 
1175,-1.9112639999999999,52.536071, edale road,Birmingham 
1176,-1.9081919999999999,52.53850500000001, desford avenue,Birmingham 
1177,-1.9112639999999999,52.536071, edale road,Birmingham 
1178,-1.910595,52.538525, petrol station,Birmingham 
1179,-1.90926,52.535557, longstone road,Birmingham 
1180,-1.90926,52.535557, longstone road,Birmingham 
1181,-1.9113360000000001,52.53680799999999, monsal road,Birmingham 
1182,-1.9081919999999999,52.53850500000001, desford avenue,Birmingham 
1183,-1.90926,52.535557, longstone road,Birmingham 
1184,-1.909906,52.536412, holmesfield road,Birmingham 
1185,-1.9144700000000001,52.539876, turnberry road,Birmingham 
1186,-1.909906,52.536412, holmesfield road,Birmingham 
1187,-1.9144700000000001,52.539876, turnberry road,Birmingham 
1188,-1.9081919999999999,52.53850500000001, desford avenue,Birmingham 
1189,-1.9144700000000001,52.539876, turnberry road,Birmingham 
1190,-1.9113360000000001,52.53680799999999, monsal road,Birmingham 
1191,-1.90926,52.535557, longstone road,Birmingham 
1192,-1.90926,52.535557, longstone road,Birmingham 
1193,-1.9049770000000001,52.538736, chelmorton road,Birmingham 
1194,-1.9043310000000002,52.53771999999999, hassop road,Birmingham 
1195,-1.9061720000000002,52.538306000000006, wingfield road,Birmingham 
1196,-1.9053849999999999,52.541343999999995, sandy lane,Birmingham 
1197,-1.9043310000000002,52.53771999999999, hassop road,Birmingham 
1198,-1.9043310000000002,52.53771999999999, hassop road,Birmingham 
1199,-1.901059,52.537133, hathersage road,Birmingham 
1200,-1.906411,52.53696600000001, chervil close,Birmingham 
1201,-1.9049770000000001,52.538736, chelmorton road,Birmingham 
1202,-1.9061720000000002,52.538306000000006, wingfield road,Birmingham 
1203,-1.9049770000000001,52.538736, chelmorton road,Birmingham 
1204,-1.9061720000000002,52.538306000000006, wingfield road,Birmingham 
1205,-1.904259,52.537037, becton grove,Birmingham 
1206,-1.9024310000000002,52.536873, grindleford road,Birmingham 
1207,-1.904259,52.537037, becton grove,Birmingham 
1208,-1.9049770000000001,52.538736, chelmorton road,Birmingham 
1209,-1.9043310000000002,52.53771999999999, hassop road,Birmingham 
1210,-1.906411,52.53696600000001, chervil close,Birmingham 
1211,-1.9053849999999999,52.541343999999995, sandy lane,Birmingham 
1212,-1.9043310000000002,52.53771999999999, hassop road,Birmingham 
1213,-1.8992759999999997,52.536889, castleton road,Birmingham 
1214,-1.9009790000000002,52.5401, somercotes road,Birmingham 
1215,-1.897605,52.539009, further/higher educational building,Birmingham 
1216,-1.897605,52.539009, further/higher educational building,Birmingham 
1217,-1.897171,52.535413, greenholm road,Birmingham 
1218,-1.899362,52.537977000000005, smalldale road,Birmingham 
1219,-1.899362,52.537977000000005, smalldale road,Birmingham 
1220,-1.854078,52.535565000000005, chipstead road,Birmingham 
1221,-1.852932,52.538737, dunslade road,Birmingham 
1222,-1.852932,52.538737, dunslade road,Birmingham 
1223,-1.851119,52.538501000000004, abbeyfield road,Birmingham 
1224,-1.852932,52.538737, dunslade road,Birmingham 
1225,-1.854078,52.535565000000005, chipstead road,Birmingham 
1226,-1.8548209999999998,52.538074, witton lodge road,Birmingham 
1227,-1.851119,52.538501000000004, abbeyfield road,Birmingham 
1228,-1.852932,52.538737, dunslade road,Birmingham 
1229,-1.852932,52.538737, dunslade road,Birmingham 
1230,-1.854078,52.535565000000005, chipstead road,Birmingham 
1231,-1.852932,52.538737, dunslade road,Birmingham 
1232,-1.854078,52.535565000000005, chipstead road,Birmingham 
1233,-1.859543,52.536812, nesscliffe grove,Birmingham 
1234,-1.859543,52.536812, nesscliffe grove,Birmingham 
1235,-1.856122,52.53697, gretton road,Birmingham 
1236,-1.857347,52.536567000000005, sheddington road,Birmingham 
1237,-1.857347,52.536567000000005, sheddington road,Birmingham 
1238,-1.849186,52.53484, harcourt road,Birmingham 
1239,-1.8519290000000002,52.534411999999996, hayland road,Birmingham 
1240,-1.859543,52.536812, nesscliffe grove,Birmingham 
1241,-1.850655,52.532001, regan crescent,Birmingham 
1242,-1.8507360000000002,52.529727, grayshott close,Birmingham 
1243,-1.84902,52.531612, robert avenue,Birmingham 
1244,-1.849072,52.52500500000001, milverton road,Birmingham 
1245,-1.850655,52.532001, regan crescent,Birmingham 
1246,-1.8507360000000002,52.529727, grayshott close,Birmingham 
1247,-1.849072,52.52500500000001, milverton road,Birmingham 
1248,-1.854541,52.533579, raford road,Birmingham 
1249,-1.8521919999999998,52.530627, short heath road,Birmingham 
1250,-1.8507360000000002,52.529727, grayshott close,Birmingham 
1251,-1.8496650000000001,52.532692000000004, newnham grove,Birmingham 
1252,-1.8496650000000001,52.532692000000004, newnham grove,Birmingham 
1253,-1.8496650000000001,52.532692000000004, newnham grove,Birmingham 
1254,-1.850655,52.532001, regan crescent,Birmingham 
1255,-1.8559009999999998,52.528133, edgware road,Birmingham 
1256,-1.8558119999999998,52.532637, glendon road,Birmingham 
1257,-1.8561889999999999,52.534687, kestrel close,Birmingham 
1258,-1.8561889999999999,52.534687, kestrel close,Birmingham 
1259,-1.8561889999999999,52.534687, kestrel close,Birmingham 
1260,-1.8561889999999999,52.534687, kestrel close,Birmingham 
1261,-1.859948,52.530124, sports/recreation area,Birmingham 
1262,-1.859358,52.53487, turfpits lane,Birmingham 
1263,-1.8585049999999999,52.52955600000001, streetly road,Birmingham 
1264,-1.855804,52.53065, the parklands,Birmingham 
1265,-1.8561889999999999,52.534687, kestrel close,Birmingham 
1266,-1.8618740000000003,52.53175400000001, perry common road,Birmingham 
1267,-1.859429,52.53109499999999, lambert close,Birmingham 
1268,-1.859429,52.53109499999999, lambert close,Birmingham 
1269,-1.8585049999999999,52.52955600000001, streetly road,Birmingham 
1270,-1.8561889999999999,52.534687, kestrel close,Birmingham 
1271,-1.859429,52.53109499999999, lambert close,Birmingham 
1272,-1.8561889999999999,52.534687, kestrel close,Birmingham 
1273,-1.857315,52.532854, the briars,Birmingham 
1274,-1.8561889999999999,52.534687, kestrel close,Birmingham 
1275,-1.8543,52.53063, sports/recreation area,Birmingham 
1276,-1.8559009999999998,52.528133, edgware road,Birmingham 
1277,-1.8618740000000003,52.53175400000001, perry common road,Birmingham 
1278,-1.8561889999999999,52.534687, kestrel close,Birmingham 
1279,-1.8490080000000002,52.530820999999996, anderson road,Birmingham 
1280,-1.8457700000000001,52.52918100000001, court lane,Birmingham 
1281,-1.8490080000000002,52.530820999999996, anderson road,Birmingham 
1282,-1.8469470000000001,52.53005400000001, bromford close,Birmingham 
1283,-1.8457700000000001,52.52918100000001, court lane,Birmingham 
1284,-1.844212,52.528055, marsh close,Birmingham 
1285,-1.8485060000000002,52.526541, beech dene grove,Birmingham 
1286,-1.8490080000000002,52.530820999999996, anderson road,Birmingham 
1287,-1.8457700000000001,52.52918100000001, court lane,Birmingham 
1288,-1.844212,52.528055, marsh close,Birmingham 
1289,-1.845071,52.526931999999995, balmoral road,Birmingham 
1290,-1.8457700000000001,52.52918100000001, court lane,Birmingham 
1291,-1.804209,52.537525, eldon drive,Birmingham 
1292,-1.7982470000000002,52.535608999999994, haunchwood drive,Birmingham 
1293,-1.804209,52.537525, eldon drive,Birmingham 
1294,-1.7997880000000002,52.527305000000005, kendrick road,Birmingham 
1295,-1.7982470000000002,52.535608999999994, haunchwood drive,Birmingham 
1296,-1.8014599999999998,52.538968000000004, milverton close,Birmingham 
1297,-1.7982470000000002,52.535608999999994, haunchwood drive,Birmingham 
1298,-1.7982470000000002,52.535608999999994, haunchwood drive,Birmingham 
1299,-1.8015419999999998,52.537287, trident close,Birmingham 
1300,-1.7982470000000002,52.535608999999994, haunchwood drive,Birmingham 
1301,-1.7982470000000002,52.535608999999994, haunchwood drive,Birmingham 
1302,-1.804209,52.537525, eldon drive,Birmingham 
1303,-1.804209,52.537525, eldon drive,Birmingham 
1304,-1.8014599999999998,52.538968000000004, milverton close,Birmingham 
1305,-1.8066200000000001,52.539102, moxhull drive,Birmingham 
1306,-1.806069,52.536953000000004, alder close,Birmingham 
1307,-1.7997880000000002,52.527305000000005, kendrick road,Birmingham 
1308,-1.806069,52.536953000000004, alder close,Birmingham 
1309,-1.806069,52.536953000000004, alder close,Birmingham 
1310,-1.767422,52.526894999999996, robinson's way,Birmingham 
1311,-1.767422,52.526894999999996, robinson's way,Birmingham 
1312,-1.767422,52.526894999999996, robinson's way,Birmingham 
1313,-1.769457,52.532346999999994, hurst green road,Birmingham 
1314,-1.7686939999999998,52.531546, lawrence drive,Birmingham 
1315,-1.773711,52.530611, thornley grove,Birmingham 
1316,-1.770737,52.529851, longley avenue,Birmingham 
1317,-1.7725060000000001,52.529827000000004, oxstall close,Birmingham 
1318,-1.770737,52.529851, longley avenue,Birmingham 
1319,-1.773711,52.530611, thornley grove,Birmingham 
1320,-1.77068,52.523970999999996, park lane,Birmingham 
1321,-1.774502,52.528689, old kingsbury road,Birmingham 
1322,-1.7725060000000001,52.529827000000004, oxstall close,Birmingham 
1323,-1.773711,52.530611, thornley grove,Birmingham 
1324,-1.770737,52.529851, longley avenue,Birmingham 
1325,-1.7686939999999998,52.531546, lawrence drive,Birmingham 
1326,-1.7725060000000001,52.529827000000004, oxstall close,Birmingham 
1327,-1.8002209999999998,52.532727, eachelhurst road,Birmingham 
1328,-1.798976,52.5309, westlands road,Birmingham 
1329,-1.7945630000000001,52.532033999999996, windyridge road,Birmingham 
1330,-1.789623,52.532313, marfield close,Birmingham 
1331,-1.7906549999999999,52.52929399999999, maybrook road,Birmingham 
1332,-1.7945630000000001,52.532033999999996, windyridge road,Birmingham 
1333,-1.798976,52.5309, westlands road,Birmingham 
1334,-1.7945630000000001,52.532033999999996, windyridge road,Birmingham 
1335,-1.798976,52.5309, westlands road,Birmingham 
1336,-1.8002209999999998,52.532727, eachelhurst road,Birmingham 
1337,-1.77973,52.532681000000004, supermarket,Birmingham 
1338,-1.77973,52.532681000000004, supermarket,Birmingham 
1339,-1.77973,52.532681000000004, supermarket,Birmingham 
1340,-1.785206,52.531262, moreland croft,Birmingham 
1341,-1.782377,52.531031999999996, harbury close,Birmingham 
1342,-1.784948,52.529661, forge lane,Birmingham 
1343,-1.77973,52.532681000000004, supermarket,Birmingham 
1344,-1.77973,52.532681000000004, supermarket,Birmingham 
1345,-1.77973,52.532681000000004, supermarket,Birmingham 
1346,-1.77973,52.532681000000004, supermarket,Birmingham 
1347,-1.77973,52.532681000000004, supermarket,Birmingham 
1348,-1.77973,52.532681000000004, supermarket,Birmingham 
1349,-1.77973,52.532681000000004, supermarket,Birmingham 
1350,-1.77973,52.532681000000004, supermarket,Birmingham 
1351,-1.77973,52.532681000000004, supermarket,Birmingham 
1352,-1.783902,52.532689000000005, lytham close,Birmingham 
1353,-1.77973,52.532681000000004, supermarket,Birmingham 
1354,-1.782377,52.531031999999996, harbury close,Birmingham 
1355,-1.77973,52.532681000000004, supermarket,Birmingham 
1356,-1.77973,52.532681000000004, supermarket,Birmingham 
1357,-1.77973,52.532681000000004, supermarket,Birmingham 
1358,-1.77973,52.532681000000004, supermarket,Birmingham 
1359,-1.7874009999999998,52.534583, lyneham gardens,Birmingham 
1360,-1.8718860000000002,52.530839, osier grove,Birmingham 
1361,-1.872384,52.531873, blackrock road,Birmingham 
1362,-1.872384,52.531873, blackrock road,Birmingham 
1363,-1.8785319999999999,52.531403000000005, ercall close,Birmingham 
1364,-1.871902,52.535379000000006, firecrest close,Birmingham 
1365,-1.875073,52.534843, sports/recreation area,Birmingham 
1366,-1.872384,52.531873, blackrock road,Birmingham 
1367,-1.878896,52.533381999999996, lydham close,Birmingham 
1368,-1.8718860000000002,52.530839, osier grove,Birmingham 
1369,-1.878896,52.533381999999996, lydham close,Birmingham 
1370,-1.861343,52.531618, short heath road,Birmingham 
1371,-1.872384,52.531873, blackrock road,Birmingham 
1372,-1.872384,52.531873, blackrock road,Birmingham 
1373,-1.875073,52.534843, sports/recreation area,Birmingham 
1374,-1.872384,52.531873, blackrock road,Birmingham 
1375,-1.861343,52.531618, short heath road,Birmingham 
1376,-1.872384,52.531873, blackrock road,Birmingham 
1377,-1.872384,52.531873, blackrock road,Birmingham 
1378,-1.861343,52.531618, short heath road,Birmingham 
1379,-1.861343,52.531618, short heath road,Birmingham 
1380,-1.861343,52.531618, short heath road,Birmingham 
1381,-1.861343,52.531618, short heath road,Birmingham 
1382,-1.872384,52.531873, blackrock road,Birmingham 
1383,-1.861343,52.531618, short heath road,Birmingham 
1384,-1.875073,52.534843, sports/recreation area,Birmingham 
1385,-1.872384,52.531873, blackrock road,Birmingham 
1386,-1.872384,52.531873, blackrock road,Birmingham 
1387,-1.875073,52.534843, sports/recreation area,Birmingham 
1388,-1.8755110000000002,52.531158, cygnet grove,Birmingham 
1389,-1.872975,52.53155, millbank grove,Birmingham 
1390,-1.872975,52.53155, millbank grove,Birmingham 
1391,-1.8755110000000002,52.531158, cygnet grove,Birmingham 
1392,-1.8782849999999998,52.53027900000001, daisy drive,Birmingham 
1393,-1.872975,52.53155, millbank grove,Birmingham 
1394,-1.873375,52.53080500000001, faulkners farm drive,Birmingham 
1395,-1.8758689999999998,52.529881, suffield grove,Birmingham 
1396,-1.8740689999999998,52.530446, lakeside drive,Birmingham 
1397,-1.872975,52.53155, millbank grove,Birmingham 
1398,-1.8767049999999998,52.531276, wyrley way,Birmingham 
1399,-1.872975,52.53155, millbank grove,Birmingham 
1400,-1.8739240000000001,52.529546999999994, parking area,Birmingham 
1401,-1.873375,52.53080500000001, faulkners farm drive,Birmingham 
1402,-1.8740689999999998,52.530446, lakeside drive,Birmingham 
1403,-1.8755110000000002,52.531158, cygnet grove,Birmingham 
1404,-1.875752,52.529324, parkhouse drive,Birmingham 
1405,-1.875752,52.529324, parkhouse drive,Birmingham 
1406,-1.8739240000000001,52.529546999999994, parking area,Birmingham 
1407,-1.873375,52.53080500000001, faulkners farm drive,Birmingham 
1408,-1.873375,52.53080500000001, faulkners farm drive,Birmingham 
1409,-1.8755110000000002,52.531158, cygnet grove,Birmingham 
1410,-1.873089,52.522569999999995, brookvale road,Birmingham 
1411,-1.8701279999999998,52.52703399999999, braemar drive,Birmingham 
1412,-1.8734369999999998,52.524539000000004, apple tree close,Birmingham 
1413,-1.873089,52.522569999999995, brookvale road,Birmingham 
1414,-1.875704,52.525611, yerbury grove,Birmingham 
1415,-1.875704,52.525611, yerbury grove,Birmingham 
1416,-1.875704,52.525611, yerbury grove,Birmingham 
1417,-1.873089,52.522569999999995, brookvale road,Birmingham 
1418,-1.8721150000000002,52.522918999999995, george road,Birmingham 
1419,-1.874716,52.525583, farley road,Birmingham 
1420,-1.8751400000000003,52.526977, welbeck grove,Birmingham 
1421,-1.8701279999999998,52.52703399999999, braemar drive,Birmingham 
1422,-1.8701279999999998,52.52703399999999, braemar drive,Birmingham 
1423,-1.875704,52.525611, yerbury grove,Birmingham 
1424,-1.8756680000000001,52.527814, ripley grove,Birmingham 
1425,-1.874702,52.52555600000001, brookvale park road,Birmingham 
1426,-1.8721150000000002,52.522918999999995, george road,Birmingham 
1427,-1.8701279999999998,52.52703399999999, braemar drive,Birmingham 
1428,-1.874702,52.52555600000001, brookvale park road,Birmingham 
1429,-1.875704,52.525611, yerbury grove,Birmingham 
1430,-1.873089,52.522569999999995, brookvale road,Birmingham 
1431,-1.8756680000000001,52.527814, ripley grove,Birmingham 
1432,-1.8701279999999998,52.52703399999999, braemar drive,Birmingham 
1433,-1.8912779999999998,52.533663, blakeland road,Birmingham 
1434,-1.878366,52.527671999999995, the ridgeway,Birmingham 
1435,-1.8930529999999999,52.531229, marine drive,Birmingham 
1436,-1.8820599999999998,52.524287, perrywell road,Birmingham 
1437,-1.895341,52.529918, cranleigh place,Birmingham 
1438,-1.8912779999999998,52.533663, blakeland road,Birmingham 
1439,-1.891111,52.529824, sports/recreation area,Birmingham 
1440,-1.893042,52.535669999999996, greenholm road,Birmingham 
1441,-1.8820599999999998,52.524287, perrywell road,Birmingham 
1442,-1.8882720000000002,52.533076, brylan croft,Birmingham 
1443,-1.8953689999999999,52.530609999999996, maybank place,Birmingham 
1444,-1.8953689999999999,52.530609999999996, maybank place,Birmingham 
1445,-1.8912779999999998,52.533663, blakeland road,Birmingham 
1446,-1.843784,52.532270999999994, jarvis road,Birmingham 
1447,-1.84237,52.53208000000001, stones green,Birmingham 
1448,-1.84237,52.53208000000001, stones green,Birmingham 
1449,-1.843784,52.532270999999994, jarvis road,Birmingham 
1450,-1.842652,52.535676, top croft road,Birmingham 
1451,-1.84237,52.53208000000001, stones green,Birmingham 
1452,-1.84237,52.53208000000001, stones green,Birmingham 
1453,-1.843348,52.53485, baldmoor lake road,Birmingham 
1454,-1.843784,52.532270999999994, jarvis road,Birmingham 
1455,-1.843784,52.532270999999994, jarvis road,Birmingham 
1456,-1.843348,52.53485, baldmoor lake road,Birmingham 
1457,-1.842652,52.535676, top croft road,Birmingham 
1458,-1.848227,52.534938000000004, court lane,Birmingham 
1459,-1.84385,52.530248, norfolk road,Birmingham 
1460,-1.843784,52.532270999999994, jarvis road,Birmingham 
1461,-1.843784,52.532270999999994, jarvis road,Birmingham 
1462,-1.842652,52.535676, top croft road,Birmingham 
1463,-1.843784,52.532270999999994, jarvis road,Birmingham 
1464,-1.843348,52.53485, baldmoor lake road,Birmingham 
1465,-1.843784,52.532270999999994, jarvis road,Birmingham 
1466,-1.843784,52.532270999999994, jarvis road,Birmingham 
1467,-1.843784,52.532270999999994, jarvis road,Birmingham 
1468,-1.843784,52.532270999999994, jarvis road,Birmingham 
1469,-1.837869,52.53344, somerton drive,Birmingham 
1470,-1.8395139999999999,52.53104200000001, oliver road,Birmingham 
1471,-1.8399159999999999,52.529945999999995, dean road,Birmingham 
1472,-1.8395139999999999,52.53104200000001, oliver road,Birmingham 
1473,-1.837869,52.53344, somerton drive,Birmingham 
1474,-1.837869,52.53344, somerton drive,Birmingham 
1475,-1.837869,52.53344, somerton drive,Birmingham 
1476,-1.84112,52.53114300000001, gravelly lane,Birmingham 
1477,-1.84365,52.52854, short heath road,Birmingham 
1478,-1.839466,52.532049, enfield close,Birmingham 
1479,-1.8399159999999999,52.529945999999995, dean road,Birmingham 
1480,-1.837869,52.53344, somerton drive,Birmingham 
1481,-1.839466,52.532049, enfield close,Birmingham 
1482,-1.84365,52.52854, short heath road,Birmingham 
1483,-1.84365,52.52854, short heath road,Birmingham 
1484,-1.839466,52.532049, enfield close,Birmingham 
1485,-1.84365,52.52854, short heath road,Birmingham 
1486,-1.839466,52.532049, enfield close,Birmingham 
1487,-1.84365,52.52854, short heath road,Birmingham 
1488,-1.841878,52.529391000000004, gravelly lane,Birmingham 
1489,-1.841878,52.529391000000004, gravelly lane,Birmingham 
1490,-1.839466,52.532049, enfield close,Birmingham 
1491,-1.84112,52.53114300000001, gravelly lane,Birmingham 
1492,-1.839466,52.532049, enfield close,Birmingham 
1493,-1.839466,52.532049, enfield close,Birmingham 
1494,-1.8395139999999999,52.53104200000001, oliver road,Birmingham 
1495,-1.839466,52.532049, enfield close,Birmingham 
1496,-1.8396709999999998,52.524182999999994, barnabas road,Birmingham 
1497,-1.837781,52.52514300000001, parking area,Birmingham 
1498,-1.836713,52.526903000000004, high street,Birmingham 
1499,-1.8413689999999998,52.527539000000004, mona road,Birmingham 
1500,-1.8378009999999998,52.523623, parking area,Birmingham 
1501,-1.837129,52.526203, high street,Birmingham 
1502,-1.8393970000000002,52.526727, osborne road,Birmingham 
1503,-1.837129,52.526203, high street,Birmingham 
1504,-1.843257,52.527227, summer road,Birmingham 
1505,-1.843207,52.524503, summer road,Birmingham 
1506,-1.843207,52.524503, summer road,Birmingham 
1507,-1.8391259999999998,52.524218999999995, shopping area,Birmingham 
1508,-1.842639,52.522695, coton lane,Birmingham 
1509,-1.8378009999999998,52.523623, parking area,Birmingham 
1510,-1.836713,52.526903000000004, high street,Birmingham 
1511,-1.837781,52.52514300000001, parking area,Birmingham 
1512,-1.842639,52.522695, coton lane,Birmingham 
1513,-1.834214,52.525066, edwards road,Birmingham 
1514,-1.835379,52.525057999999994, mason road,Birmingham 
1515,-1.8357310000000002,52.525445999999995, further/higher educational building,Birmingham 
1516,-1.837781,52.52514300000001, parking area,Birmingham 
1517,-1.834214,52.525066, edwards road,Birmingham 
1518,-1.8385,52.526178, wilton road,Birmingham 
1519,-1.834214,52.525066, edwards road,Birmingham 
1520,-1.8385,52.526178, wilton road,Birmingham 
1521,-1.843257,52.527227, summer road,Birmingham 
1522,-1.837781,52.52514300000001, parking area,Birmingham 
1523,-1.8385630000000002,52.525, new street,Birmingham 
1524,-1.836713,52.526903000000004, high street,Birmingham 
1525,-1.8377560000000002,52.523902, supermarket,Birmingham 
1526,-1.837739,52.52459399999999, supermarket,Birmingham 
1527,-1.8402439999999998,52.524786, sutton new road,Birmingham 
1528,-1.836713,52.526903000000004, high street,Birmingham 
1529,-1.836713,52.526903000000004, high street,Birmingham 
1530,-1.8413689999999998,52.527539000000004, mona road,Birmingham 
1531,-1.837129,52.526203, high street,Birmingham 
1532,-1.842639,52.522695, coton lane,Birmingham 
1533,-1.8391259999999998,52.524218999999995, shopping area,Birmingham 
1534,-1.836713,52.526903000000004, high street,Birmingham 
1535,-1.8357310000000002,52.525445999999995, further/higher educational building,Birmingham 
1536,-1.842639,52.522695, coton lane,Birmingham 
1537,-1.837129,52.526203, high street,Birmingham 
1538,-1.842106,52.523476, york road,Birmingham 
1539,-1.8385630000000002,52.525, new street,Birmingham 
1540,-1.8385,52.526178, wilton road,Birmingham 
1541,-1.842106,52.523476, york road,Birmingham 
1542,-1.837781,52.52514300000001, parking area,Birmingham 
1543,-1.8378009999999998,52.523623, parking area,Birmingham 
1544,-1.837781,52.52514300000001, parking area,Birmingham 
1545,-1.8378009999999998,52.523623, parking area,Birmingham 
1546,-1.837781,52.52514300000001, parking area,Birmingham 
1547,-1.837781,52.52514300000001, parking area,Birmingham 
1548,-1.842639,52.522695, coton lane,Birmingham 
1549,-1.837781,52.52514300000001, parking area,Birmingham 
1550,-1.8377560000000002,52.523902, supermarket,Birmingham 
1551,-1.8438189999999999,52.522427, a5127,Birmingham 
1552,-1.8413689999999998,52.527539000000004, mona road,Birmingham 
1553,-1.843207,52.524503, summer road,Birmingham 
1554,-1.8438189999999999,52.522427, a5127,Birmingham 
1555,-1.843207,52.524503, summer road,Birmingham 
1556,-1.840269,52.525928, new street,Birmingham 
1557,-1.8413689999999998,52.527539000000004, mona road,Birmingham 
1558,-1.8410520000000001,52.525507, swan gardens,Birmingham 
1559,-1.8438189999999999,52.522427, a5127,Birmingham 
1560,-1.8396709999999998,52.524182999999994, barnabas road,Birmingham 
1561,-1.8396709999999998,52.524182999999994, barnabas road,Birmingham 
1562,-1.8378009999999998,52.523623, parking area,Birmingham 
1563,-1.8396709999999998,52.524182999999994, barnabas road,Birmingham 
1564,-1.8413689999999998,52.527539000000004, mona road,Birmingham 
1565,-1.8413689999999998,52.527539000000004, mona road,Birmingham 
1566,-1.8410520000000001,52.525507, swan gardens,Birmingham 
1567,-1.8420869999999998,52.52464499999999, machin road,Birmingham 
1568,-1.8420869999999998,52.52464499999999, machin road,Birmingham 
1569,-1.841764,52.524213, parking area,Birmingham 
1570,-1.836713,52.526903000000004, high street,Birmingham 
1571,-1.834214,52.525066, edwards road,Birmingham 
1572,-1.836713,52.526903000000004, high street,Birmingham 
1573,-1.837781,52.52514300000001, parking area,Birmingham 
1574,-1.8420869999999998,52.52464499999999, machin road,Birmingham 
1575,-1.8420869999999998,52.52464499999999, machin road,Birmingham 
1576,-1.8413689999999998,52.527539000000004, mona road,Birmingham 
1577,-1.842639,52.522695, coton lane,Birmingham 
1578,-1.836713,52.526903000000004, high street,Birmingham 
1579,-1.8396709999999998,52.524182999999994, barnabas road,Birmingham 
1580,-1.842639,52.522695, coton lane,Birmingham 
1581,-1.8396709999999998,52.524182999999994, barnabas road,Birmingham 
1582,-1.8391259999999998,52.524218999999995, shopping area,Birmingham 
1583,-1.832191,52.533873, rogerfield road,Birmingham 
1584,-1.83316,52.53106999999999, portfield grove,Birmingham 
1585,-1.832191,52.533873, rogerfield road,Birmingham 
1586,-1.8306619999999998,52.532765000000005, old bell road,Birmingham 
1587,-1.832191,52.533873, rogerfield road,Birmingham 
1588,-1.832191,52.533873, rogerfield road,Birmingham 
1589,-1.832191,52.533873, rogerfield road,Birmingham 
1590,-1.8306619999999998,52.532765000000005, old bell road,Birmingham 
1591,-1.834532,52.530667, wilmot drive,Birmingham 
1592,-1.832382,52.534071, stonnal grove,Birmingham 
1593,-1.8306619999999998,52.532765000000005, old bell road,Birmingham 
1594,-1.831775,52.530933, sutton road,Birmingham 
1595,-1.8346810000000002,52.526442, parking area,Birmingham 
1596,-1.83316,52.53106999999999, portfield grove,Birmingham 
1597,-1.832154,52.532056999999995, beechmount drive,Birmingham 
1598,-1.832191,52.533873, rogerfield road,Birmingham 
1599,-1.834532,52.530667, wilmot drive,Birmingham 
1600,-1.834532,52.530667, wilmot drive,Birmingham 
1601,-1.8306619999999998,52.532765000000005, old bell road,Birmingham 
1602,-1.8323509999999998,52.522798, moor end lane,Birmingham 
1603,-1.831748,52.526375, orchard road,Birmingham 
1604,-1.833639,52.53305699999999, rowden drive,Birmingham 
1605,-1.83316,52.53106999999999, portfield grove,Birmingham 
1606,-1.8306619999999998,52.532765000000005, old bell road,Birmingham 
1607,-1.834532,52.530667, wilmot drive,Birmingham 
1608,-1.83316,52.53106999999999, portfield grove,Birmingham 
1609,-1.8306619999999998,52.532765000000005, old bell road,Birmingham 
1610,-1.832382,52.534071, stonnal grove,Birmingham 
1611,-1.83316,52.53106999999999, portfield grove,Birmingham 
1612,-1.831748,52.526375, orchard road,Birmingham 
1613,-1.83316,52.53106999999999, portfield grove,Birmingham 
1614,-1.8346810000000002,52.526442, parking area,Birmingham 
1615,-1.832191,52.533873, rogerfield road,Birmingham 
1616,-1.8335919999999999,52.525865, hart road,Birmingham 
1617,-1.8306619999999998,52.532765000000005, old bell road,Birmingham 
1618,-1.831748,52.526375, orchard road,Birmingham 
1619,-1.8306619999999998,52.532765000000005, old bell road,Birmingham 
1620,-1.832191,52.533873, rogerfield road,Birmingham 
1621,-1.834532,52.530667, wilmot drive,Birmingham 
1622,-1.8306619999999998,52.532765000000005, old bell road,Birmingham 
1623,-1.834532,52.530667, wilmot drive,Birmingham 
1624,-1.83316,52.53106999999999, portfield grove,Birmingham 
1625,-1.834532,52.530667, wilmot drive,Birmingham 
1626,-1.9196849999999999,52.534459, bescot croft,Birmingham 
1627,-1.9242580000000002,52.532456999999994, coleraine road,Birmingham 
1628,-1.9198169999999999,52.534693000000004, supermarket,Birmingham 
1629,-1.928885,52.533629000000005, richmond croft,Birmingham 
1630,-1.9198169999999999,52.534693000000004, supermarket,Birmingham 
1631,-1.9198169999999999,52.534693000000004, supermarket,Birmingham 
1632,-1.9198169999999999,52.534693000000004, supermarket,Birmingham 
1633,-1.9198169999999999,52.534693000000004, supermarket,Birmingham 
1634,-1.9198169999999999,52.534693000000004, supermarket,Birmingham 
1635,-1.9198169999999999,52.534693000000004, supermarket,Birmingham 
1636,-1.9242580000000002,52.532456999999994, coleraine road,Birmingham 
1637,-1.9291779999999998,52.534834, almond croft,Birmingham 
1638,-1.9198169999999999,52.534693000000004, supermarket,Birmingham 
1639,-1.9198169999999999,52.534693000000004, supermarket,Birmingham 
1640,-1.9198169999999999,52.534693000000004, supermarket,Birmingham 
1641,-1.924955,52.530237, montana avenue,Birmingham 
1642,-1.924955,52.530237, montana avenue,Birmingham 
1643,-1.9200409999999999,52.533237, tower hill,Birmingham 
1644,-1.9196849999999999,52.534459, bescot croft,Birmingham 
1645,-1.9246830000000001,52.533761, kingsdown avenue,Birmingham 
1646,-1.924955,52.530237, montana avenue,Birmingham 
1647,-1.9246830000000001,52.533761, kingsdown avenue,Birmingham 
1648,-1.9242580000000002,52.532456999999994, coleraine road,Birmingham 
1649,-1.924955,52.530237, montana avenue,Birmingham 
1650,-1.9242580000000002,52.532456999999994, coleraine road,Birmingham 
1651,-1.923791,52.538363000000004, pedestrian subway,Birmingham 
1652,-1.914669,52.536209, poplar rise,Birmingham 
1653,-1.914669,52.536209, poplar rise,Birmingham 
1654,-1.9202849999999998,52.52831, lavendon road,Birmingham 
1655,-1.919561,52.529748, rocky lane,Birmingham 
1656,-1.9180409999999999,52.53035, carmodale avenue,Birmingham 
1657,-1.9180409999999999,52.53035, carmodale avenue,Birmingham 
1658,-1.9202849999999998,52.52831, lavendon road,Birmingham 
1659,-1.9202849999999998,52.52831, lavendon road,Birmingham 
1660,-1.910452,52.529301000000004, pedestrian subway,Birmingham 
1661,-1.9085860000000001,52.526297, perry avenue,Birmingham 
1662,-1.908367,52.525011, crantock road,Birmingham 
1663,-1.907331,52.527249, pedestrian subway,Birmingham 
1664,-1.908367,52.525011, crantock road,Birmingham 
1665,-1.908367,52.525011, crantock road,Birmingham 
